"ID";"LibraryName";"AdmArea";"District";"Address";"NumberOfAccessPoints";"WiFiName";"CoverageArea";"FunctionFlag";"AccessFlag";"Password";"Latitude_WGS84";"Longitude_WGS84";"global_id";"geodata_center";"geoarea";
"11";"Государственное бюджетное учреждение культуры города Москвы «Централизованная библиотечная система ЦАО» Библиотека №9 имени Николая Васильевича Гоголя";"Центральный административный округ";"Пресненский район";"город Москва, Большая Грузинская улица, дом 39";"11";"Moscow_WiFi_Free";"50";"действует";"открытая сеть";"";"55.770740";"37.581334";"878954843";"0101000000C4060B2769CA42400ADCBA9BA7E24B40";"";
"19";"Государственное бюджетное учреждение культуры города Москвы «Библиотека истории русской философии и культуры «Дом Алексея Федоровича Лосева»";"Центральный административный округ";"район Хамовники";"город Москва, Глазовский переулок, дом 4, строение 8";"3";"Moscow_WiFi_Free";"50";"действует";"открытая сеть";"";"55.744353";"37.587694";"880036039";"01010000001807978E39CB4240F9D687F546DF4B40";"";
"44";"Государственное бюджетное учреждение культуры города Москвы «Централизованная библиотечная система ЮАО» Библиотека №144";"Южный административный округ";"район Зябликово";"город Москва, Ореховый бульвар, дом 37, корпус 2А";"7";"Moscow_WiFi_Free";"50";"действует";"открытая сеть";"";"55.615273";"37.737785";"880036040";"01010000005C3D27BD6FDE4240508E0244C1CE4B40";"";
"45";"Государственное бюджетное учреждение культуры города Москвы «Централизованная библиотечная система СЗАО» Библиотека №230";"Северо-Западный административный округ";"район Южное Тушино";"город Москва, Парусный проезд, дом 15";"10";"Moscow_WiFi_Free";"50";"действует";"открытая сеть";"";"55.846310";"37.446848";"880036042";"01010000003A24B55032B942408E23D6E253EC4B40";"";
"20";"Государственное бюджетное учреждение культуры города Москвы «Централизованная библиотечная система ЮАО» Библиотека №163";"Южный административный округ";"Даниловский район";"Российская Федерация, город Москва, внутригородская территория муниципальный округ Даниловский, Даниловская набережная, дом 2, корпус 2";"3";"Moscow_WiFi_Free";"50";"действует";"открытая сеть";"";"55.708374";"37.644180";"880036043";"01010000005F5E807D74D2424019ABCDFFABDA4B40";"";
"46";"Государственное бюджетное учреждение культуры города Москвы «Централизованная библиотечная система СВАО» Библиотека №55";"Северо-Восточный административный округ";"район Ростокино";"город Москва, проспект Мира, дом 198, корпус 2";"7";"Moscow_WiFi_Free";"50";"действует";"открытая сеть";"";"55.837429";"37.662264";"880036044";"0101000000B9A81611C5D442406ADC9BDF30EB4B40";"";
"21";"Государственное бюджетное учреждение культуры города Москвы «Централизованная библиотечная система САО» Библиотека №29";"Северный административный округ";"Тимирязевский район";"Российская Федерация, город Москва, внутригородская территория муниципальный округ Тимирязевский, Дмитровское шоссе, дом 50, корпус 1";"8";"Moscow_WiFi_Free";"50";"действует";"открытая сеть";"";"55.845572";"37.569351";"880036045";"0101000000F2785A7EE0C84240E7340BB43BEC4B40";"";
"47";"Государственное бюджетное учреждение культуры города Москвы «Централизованная библиотечная система ЦАО» Библиотека №1 имени Александра Сергеевича Грибоедова";"Центральный административный округ";"Мещанский район";"Российская Федерация, город Москва, внутригородская территория муниципальный округ Мещанский, проспект Мира, дом 68";"9";"Moscow_WiFi_Free";"50";"действует";"открытая сеть";"";"55.786760";"37.635268";"880036047";"010100000001193A7650D1424086E63A8DB4E44B40";"";
"22";"Государственное бюджетное учреждение культуры города Москвы «Централизованная библиотечная система ЮАО» Детская Библиотека №158";"Южный административный округ";"район Чертаново Южное";"город Москва, Дорожная улица, дом 20, корпус 1";"5";"Moscow_WiFi_Free";"50";"действует";"открытая сеть";"";"55.603303";"37.622073";"880036048";"0101000000C05C8B16A0CF4240124A5F0839CD4B40";"";
"48";"Государственное бюджетное учреждение культуры города Москвы «Централизованная библиотечная система ЮЗАО» Библиотека №180";"Юго-Западный административный округ";"район Коньково";"Российская Федерация, город Москва, внутригородская территория муниципальный округ Коньково, Профсоюзная улица, дом 92";"7";"Moscow_WiFi_Free";"50";"действует";"открытая сеть";"";"55.649108";"37.528433";"880036049";"010100000047904AB1A3C3424036C98FF815D34B40";"";
"49";"Государственное бюджетное учреждение культуры города москвы «Центральная городская детская библиотека имени Аркадия Петровича Гайдара»";"Центральный административный округ";"район Хамовники";"город Москва, Ростовская набережная, дом 5";"4";"Moscow_WiFi_Free";"50";"действует";"открытая сеть";"";"55.742189";"37.574992";"880036051";"010100000017BB7D5699C94240B939950C00DF4B40";"";
"24";"Государственное бюджетное учреждение культуры города Москвы «Централизованная библиотечная система СВАО» Библиотека №60 имени Осипа Эмильевича Мандельштама";"Северо-Восточный административный округ";"Останкинский район";"город Москва, Звёздный бульвар, дом 4";"4";"Moscow_WiFi_Free";"50";"действует";"открытая сеть";"";"55.817835";"37.635503";"880036052";"010100000044C18C2958D14240184339D1AEE84B40";"";
"50";"Государственное бюджетное учреждение культуры города Москвы «Централизованная библиотечная система ЮВАО» Библиотека №111";"Юго-Восточный административный округ";"район Выхино-Жулебино";"город Москва, Рязанский проспект, дом 95, корпус 2";"7";"Moscow_WiFi_Free";"50";"действует";"открытая сеть";"";"55.715297";"37.810072";"880036054";"0101000000E1B37570B0E74240A5F622DA8EDB4B40";"";
"25";"Государственное бюджетное учреждение культуры города Москвы «Централизованная библиотечная система ЗАО» Детская библиотека №203";"Западный административный округ";"район Филёвский Парк";"город Москва, Кастанаевская улица, дом 7";"7";"Moscow_WiFi_Free";"50";"действует";"открытая сеть";"";"55.738814";"37.496012";"880036055";"010100000037363B527DBF4240D9E9077591DE4B40";"";
"51";"Государственное бюджетное учреждение культуры города Москвы «Центральная городская молодежная библиотека имени Михаила Аркадьевича Светлова»";"Центральный административный округ";"Пресненский район";"город Москва, Садовая-Кудринская улица, дом 23, строение 1";"2";"Moscow_WiFi_Free";"50";"действует";"открытая сеть";"";"55.765614";"37.589706";"880036056";"0101000000A320787C7BCB42400CAEB9A3FFE14B40";"";
"26";"Государственное бюджетное учреждение культуры города Москвы «Централизованная библиотечная система ЮАО» Центральная библиотека №136 имени Льва Николаевича Толстого";"Южный административный округ";"район Нагатино-Садовники";"город Москва, Каширское шоссе, дом 16";"5";"Moscow_WiFi_Free";"50";"действует";"открытая сеть";"";"55.662187";"37.630499";"880036057";"01010000009294F430B4D042400E6B2A8BC2D44B40";"";
"27";"Государственное бюджетное учреждение культуры города Москвы «Централизованная библиотечная система ЮАО» Библиотека №162 имени Константина Михайловича Симонова";"Южный административный округ";"район Нагатинский Затон";"Российская Федерация, город Москва, внутригородская территория муниципальный округ Нагатинский Затон, Коломенская улица, дом 9, строение 5";"6";"Moscow_WiFi_Free";"50";"действует";"открытая сеть";"";"55.680143";"37.704278";"880036058";"01010000006AA510C825DA42403ACD02ED0ED74B40";"";
"52";"Государственное бюджетное учреждение культуры города Москвы «Централизованная библиотечная система ЮАО» Детская библиотека №141";"Южный административный округ";"район Царицыно";"город Москва, Севанская улица, дом 13, корпус 1";"7";"Moscow_WiFi_Free";"50";"действует";"открытая сеть";"";"55.623036";"37.654583";"880036059";"010100000040C23060C9D34240861DC6A4BFCF4B40";"";
"28";"Государственное бюджетное учреждение культуры города Москвы «Централизованная библиотечная система ЮАО» Центральная библиотека №136 имени Льва Николаевича Толстого";"Южный административный округ";"район Нагатино-Садовники";"город Москва, Коломенский проезд, дом 21";"5";"Moscow_WiFi_Free";"50";"действует";"открытая сеть";"";"55.667736";"37.652445";"880036060";"010100000028B8585183D34240512E8D5F78D54B40";"";
"53";"Государственное бюджетное учреждение культуры города Москвы «Библиотека читальня имени Александра Сергеевича Пушкина»";"Центральный административный округ";"Басманный район";"город Москва, Спартаковская улица, дом 9, строение 3";"9";"Moscow_WiFi_Free";"50";"действует";"открытая сеть";"";"55.772036";"37.671956";"880036061";"0101000000ED2C7AA702D64240D6AA5D13D2E24B40";"";
"54";"Государственное бюджетное учреждение культуры города Москвы «Централизованная библиотечная система ВАО» Библиотека №79 имени Бориса Андреевича Лавренева";"Восточный административный округ";"район Восточное Измайлово";"город Москва, Средняя Первомайская улица, дом 38/7";"4";"Moscow_WiFi_Free";"50";"действует";"открытая сеть";"";"55.794730";"37.811869";"880036062";"010100000070D1C952EBE7424036936FB6B9E54B40";"";
"29";"Государственное бюджетное учреждение культуры города Москвы «Централизованная библиотечная система САО» Центральная детская библиотека №46 имени Ивана Захаровича Сурикова";"Северный административный округ";"район Коптево";"город Москва, Коптевская улица, дом 26, корпус 6";"4";"Moscow_WiFi_Free";"50";"действует";"открытая сеть";"";"55.835341";"37.523097";"880036063";"01010000005FD1ADD7F4C2424004013274ECEA4B40";"";
"30";"Государственное бюджетное учреждение культуры города Москвы «Централизованная библиотечная система ЮВАО» Библиотека №130";"Юго-Восточный административный округ";"район Люблино";"город Москва, Краснодарская улица, дом 20/1";"7";"Moscow_WiFi_Free";"50";"действует";"открытая сеть";"";"55.677209";"37.750469";"880036064";"0101000000B7D4415E0FE0424047C7D5C8AED64B40";"";
"31";"Государственное бюджетное учреждение культуры города Москвы «Централизованная библиотечная система ЗАО» Детская библиотека №206 имени Ивана Егоровича Забелина";"Западный административный округ";"район Фили-Давыдково";"город Москва, Кременчугская улица, дом 6, корпус 1";"9";"Moscow_WiFi_Free";"50";"действует";"открытая сеть";"";"55.723795";"37.460241";"880036066";"0101000000A1A3552DE9BA424011018750A5DC4B40";"";
"75";"Государственное бюджетное учреждение культуры города Москвы «Централизованная библиотечная система ЦАО» Библиотека №3 имени Николая Александровича Добролюбова";"Центральный административный округ";"район Арбат";"Российская Федерация, город Москва, внутригородская территория муниципальный округ Арбат, улица Новый Арбат, дом 30/9";"5";"Moscow_WiFi_Free";"50";"действует";"открытая сеть";"";"55.752891";"37.582179";"880036067";"010100000080B56AD784CA4240F33977BB5EE04B40";"";
"32";"Государственное бюджетное учреждение культуры города Москвы «Централизованная библиотечная система ЗАО» Библиотека №209 имени Алексея Николаевича Толстого";"Западный административный округ";"район Дорогомилово";"Российская Федерация, город Москва, внутригородская территория муниципальный округ Дорогомилово, Кутузовский проспект, дом 24";"6";"Moscow_WiFi_Free";"50";"действует";"открытая сеть";"";"55.744526";"37.545267";"880036068";"0101000000454B1E4FCBC54240C782C2A04CDF4B40";"";
"76";"Государственное бюджетное учреждение культуры города Москвы «Централизованная библиотечная система ЮЗАО» Библиотека №188";"Юго-Западный административный округ";"Обручевский район";"город Москва, улица Обручева, дом 24";"5";"Moscow_WiFi_Free";"50";"действует";"открытая сеть";"";"55.657321";"37.518282";"880036069";"0101000000800D881057C24240ADFC321823D44B40";"";
"33";"Государственное бюджетное учреждение культуры города Москвы «Централизованная библиотечная система ЮАО» Библиотека №166 имени 1 Мая";"Южный административный округ";"Донской район";"Российская Федерация, город Москва, внутригородская территория муниципальный округ Донской, Ленинский проспект, дом 37А";"2";"Moscow_WiFi_Free";"50";"действует";"открытая сеть";"";"55.708587";"37.586670";"880036070";"0101000000ACC5A70018CB424075AF93FAB2DA4B40";"";
"77";"Государственное бюджетное учреждение культуры города Москвы «Централизованная библиотечная система ЮЗАО» Библиотека №191";"Юго-Западный административный округ";"район Черёмушки";"город Москва, улица Обручева, дом 51";"3";"Moscow_WiFi_Free";"50";"действует";"открытая сеть";"";"55.651374";"37.559290";"880036071";"01010000006B7D91D096C742407BBB253960D34B40";"";
"34";"Государственное бюджетное учреждение культуры города Москвы «Централизованная библиотечная система ЦАО» Библиотека №18 имени Василия Андреевича Жуковского";"Центральный административный округ";"Басманный район";"город Москва, Лялин переулок, дом 24-26, строение 2";"8";"Moscow_WiFi_Free";"50";"действует";"открытая сеть";"";"55.756812";"37.653164";"880036072";"01010000005776C1E09AD34240349C3237DFE04B40";"";
"78";"Государственное бюджетное учреждение культуры города Москвы «Централизованная библиотечная система СЗАО» Библиотека №240";"Северо-Западный административный округ";"район Хорошёво-Мнёвники";"город Москва, улица Паршина, дом 33";"4";"Moscow_WiFi_Free";"50";"действует";"открытая сеть";"";"55.788793";"37.455534";"880036073";"0101000000A81B28F04EBA42402828452BF7E44B40";"";
"35";"Государственное бюджетное учреждение культуры города Москвы «Централизованная библиотечная система ЮАО» Библиотека №151";"Южный административный округ";"район Чертаново Северное";"Российская Федерация, город Москва, внутригородская территория муниципальный округ Чертаново Северное, микрорайон Северное Чертаново, дом 2, корпус 207";"5";"Moscow_WiFi_Free";"50";"действует";"открытая сеть";"";"55.639329";"37.601034";"880036074";"01010000005CE49EAEEECC424033315D88D5D14B40";"";
"79";"Государственное бюджетное учреждение культуры города Москвы «Централизованная библиотечная система ЮВАО» Библиотека №129";"Юго-Восточный административный округ";"район Марьино";"город Москва, улица Перерва, дом 56/2";"6";"Moscow_WiFi_Free";"50";"действует";"открытая сеть";"";"55.657845";"37.747729";"880036076";"0101000000A9A27895B5DF4240276BD44334D44B40";"";
"36";"Государственное бюджетное учреждение культуры города Москвы «Централизованная библиотечная система САО» Центральная детская библиотека №46 имени Ивана Захаровича Сурикова";"Северный административный округ";"район Коптево";"город Москва, Михалковская улица, дом 15";"6";"Moscow_WiFi_Free";"50";"действует";"открытая сеть";"";"55.839537";"37.526304";"880036077";"010100000083E0F1ED5DC342401764CBF275EB4B40";"";
"80";"Государственное бюджетное учреждение культуры города Москвы «Централизованная библиотечная система ЮЗАО» Библиотека №175";"Юго-Западный административный округ";"район Котловка";"город Москва, улица Ремизова, дом 10";"4";"Moscow_WiFi_Free";"50";"действует";"открытая сеть";"";"55.676220";"37.600657";"880036078";"0101000000868E1D54E2CC4240587380608ED64B40";"";
"37";"Государственное бюджетное учреждение культуры города Москвы «Централизованная библиотечная система ЗАО» Библиотека №216";"Западный административный округ";"район Раменки";"Российская Федерация, город Москва, внутригородская территория муниципальный округ Раменки, Мичуринский проспект, дом 54А";"7";"Moscow_WiFi_Free";"50";"действует";"открытая сеть";"";"55.693906";"37.490578";"880036079";"01010000008C118942CBBE4240C43F6CE9D1D84B40";"";
"81";"Государственное бюджетное учреждение культуры города Москвы «Централизованная библиотечная система СЗАО» Библиотека №231 имени Николая Алексеевича Островского";"Северо-Западный административный округ";"район Южное Тушино";"город Москва, улица Свободы, дом 45, строение 1";"6";"Moscow_WiFi_Free";"50";"действует";"открытая сеть";"";"55.846234";"37.453199";"880036080";"01010000003ACAC16C02BA4240B3614D6551EC4B40";"";
"82";"Государственное бюджетное учреждение культуры города Москвы «Централизованная библиотечная система САО» Библиотека №32";"Северный административный округ";"район Аэропорт";"город Москва, улица Степана Супруна, дом 12, корпус 3";"6";"Moscow_WiFi_Free";"50";"действует";"открытая сеть";"";"55.797468";"37.545536";"880036082";"01010000003465A71FD4C54240A3CD716E13E64B40";"";
"39";"Государственное бюджетное учреждение культуры города Москвы «Централизованная библиотечная система ЮВАО» Библиотека №116";"Юго-Восточный административный округ";"Нижегородский район";"Российская Федерация, город Москва, внутригородская территория муниципальный округ Нижегородский, Нижегородская улица, дом 70, корпус 1";"8";"Moscow_WiFi_Free";"50";"действует";"открытая сеть";"";"55.733452";"37.709147";"880036083";"01010000003C873254C5DA4240C89750C1E1DD4B40";"";
"83";"Государственное бюджетное учреждение культуры города Москвы «Централизованная библиотечная система ЮВАО» Библиотека №121";"Юго-Восточный административный округ";"Южнопортовый район";"Российская Федерация, город Москва, внутригородская территория муниципальный округ Южнопортовый, улица Трофимова, дом 15";"7";"Moscow_WiFi_Free";"50";"действует";"открытая сеть";"";"55.703155";"37.672792";"880036084";"010100000056815A0C1ED642406B82A8FB00DA4B40";"";
"84";"Государственное бюджетное учреждение культуры города Москвы «Централизованная библиотечная система ЗАО» Библиотека №215";"Западный административный округ";"район Проспект Вернадского";"город Москва, улица Удальцова, дом 26, корпус 1";"4";"Moscow_WiFi_Free";"50";"действует";"открытая сеть";"";"55.681052";"37.494818";"880036086";"01010000006FBC3B3256BF42400D7041B62CD74B40";"";
"41";"Государственное бюджетное учреждение культуры города Москвы «Централизованная библиотечная система ЗАО» Библиотека №213 имени Леси Украинки";"Западный административный округ";"район Филёвский Парк";"город Москва, Новозаводская улица, дом 2, корпус 5";"7";"Moscow_WiFi_Free";"50";"действует";"открытая сеть";"";"55.747338";"37.515757";"880036087";"01010000006FD74B5304C242406E8786C5A8DF4B40";"";
"85";"Государственное бюджетное учреждение культуры города Москвы «Централизованная библиотечная система САО» Библиотека №42 имени Андрея Платоновича Платонова";"Северный административный округ";"район Аэропорт";"город Москва, улица Усиевича, дом 16";"5";"Moscow_WiFi_Free";"50";"действует";"открытая сеть";"";"55.806737";"37.524336";"880036088";"0101000000C70E2A711DC3424090BC732843E74B40";"";
"42";"Государственное бюджетное учреждение культуры города Москвы «Централизованная библиотечная система СВАО» Библиотека №50";"Северо-Восточный административный округ";"район Марьина Роща";"Российская Федерация, город Москва, внутригородская территория муниципальный округ Марьина Роща, Октябрьская улица, дом 103, корпус 1";"7";"Moscow_WiFi_Free";"50";"действует";"открытая сеть";"";"55.798546";"37.610889";"880036089";"01010000003A3E5A9C31CE4240022D5DC136E64B40";"";
"86";"Государственное бюджетное учреждение культуры города Москвы «Централизованная библиотечная система ЮВАО» Библиотека №127";"Юго-Восточный административный округ";"район Текстильщики";"город Москва, улица Чистова, дом 15/15";"10";"Moscow_WiFi_Free";"50";"действует";"открытая сеть";"";"55.697275";"37.744900";"880036090";"01010000002C6519E258DF4240C1A8A44E40D94B40";"";
"43";"Государственное бюджетное учреждение культуры города Москвы «Централизованная библиотечная система САО» Библиотека №44 имени Владимира Галактионовича Короленко";"Северный административный округ";"Головинский район";"город Москва, Онежская улица, дом 17, корпус 4";"3";"Moscow_WiFi_Free";"50";"действует";"открытая сеть";"";"55.851298";"37.517231";"880036091";"01010000001BBD1AA034C242403A933655F7EC4B40";"";
"87";"Государственное бюджетное учреждение культуры города Москвы «Централизованная библиотечная система ЮАО» Библиотека №164 «Просвещение трудящихся»";"Южный административный округ";"Донской район";"Российская Федерация, город Москва, внутригородская территория муниципальный округ Донской, улица Шаболовка, дом 36";"7";"Moscow_WiFi_Free";"50";"действует";"открытая сеть";"";"55.717543";"37.608005";"880036092";"0101000000F9669B1BD3CD4240A33CF372D8DB4B40";"";
"88";"Государственное бюджетное учреждение культуры города Москвы «Централизованная библиотечная система ЮВАО» Библиотека №120";"Юго-Восточный административный округ";"район Лефортово";"город Москва, Ухтомская улица, дом 21";"11";"Moscow_WiFi_Free";"50";"действует";"открытая сеть";"";"55.767423";"37.715668";"880036098";"010100000099654F029BDB42405F99B7EA3AE24B40";"";
"89";"Государственное бюджетное учреждение культуры города Москвы «Централизованная библиотечная система САО» Библиотека №44 имени Владимира Галактионовича Короленко";"Северный административный округ";"Головинский район";"город Москва, Фестивальная улица, дом 46, корпус 1";"4";"Moscow_WiFi_Free";"50";"действует";"открытая сеть";"";"55.862676";"37.512955";"880036099";"0101000000EBA86A82A8C14240A585CB2A6CEE4B40";"";
"90";"Государственное бюджетное учреждение культуры города Москвы «Централизованная библиотечная система ВАО» Центральная библиотека №70 имени Михаила Александровича Шолохова";"Восточный административный округ";"район Преображенское";"Российская Федерация, город Москва, внутригородская территория муниципальный округ Преображенское, Халтуринская улица, дом 18";"10";"Moscow_WiFi_Free";"50";"действует";"открытая сеть";"";"55.804810";"37.726313";"880036101";"01010000006FD40AD3F7DC424034BF9A0304E74B40";"";
"2";"Государственное бюджетное учреждение культуры города Москвы «Централизованная библиотечная система ЦАО» Библиотека №7 имени Антуана де СентЭкзюпери";"Центральный административный округ";"Красносельский район";"город Москва, 2-й Красносельский переулок, дом 2";"9";"Moscow_WiFi_Free";"50";"действует";"открытая сеть";"";"55.782253";"37.665093";"880036102";"010100000036E675C421D542405419C6DD20E44B40";"";
"91";"Государственное бюджетное учреждение культуры города Москвы «Централизованная библиотечная система ЮЗАО» Библиотека №168";"Юго-Западный административный округ";"район Зюзино";"город Москва, Херсонская улица, дом 1";"8";"Moscow_WiFi_Free";"50";"действует";"открытая сеть";"";"55.649632";"37.576834";"880036103";"0101000000459C4EB2D5C94240B037312427D34B40";"";
"92";"Государственное бюджетное учреждение культуры города Москвы «Централизованная библиотечная система СЗАО» Центральная детская библиотека №226";"Северо-Западный административный округ";"район Северное Тушино";"город Москва, Химкинский бульвар, дом 16, корпус 1";"9";"Moscow_WiFi_Free";"50";"действует";"открытая сеть";"";"55.851965";"37.443030";"880036104";"0101000000CD920035B5B84240172B6A300DED4B40";"";
"3";"Государственное бюджетное учреждение культуры города Москвы «Централизованная библиотечная система ЮАО» Библиотека №163";"Южный административный округ";"Даниловский район";"город Москва, 3-й Павловский переулок, дом 14";"6";"Moscow_WiFi_Free";"50";"действует";"открытая сеть";"";"55.718344";"37.630149";"880036105";"0101000000B64DF1B8A8D0424090A339B2F2DB4B40";"";
"55";"Государственное бюджетное учреждение культуры города Москвы «Библиотека искусств имени Алексея Петровича Боголюбова»";"Центральный административный округ";"Тверской район";"город Москва, Сущёвская улица, дом 14";"21";"Moscow_WiFi_Free";"50";"действует";"открытая сеть";"";"55.781362";"37.602436";"880036106";"01010000006EF7729F1CCD4240282B86AB03E44B40";"";
"56";"Государственное бюджетное учреждение культуры города Москвы «Централизованная библиотечная система САО» Библиотека №23 имени Максима Горького";"Северный административный округ";"Тимирязевский район";"город Москва, Тимирязевская улица, дом 17, корпус 1";"7";"Moscow_WiFi_Free";"50";"действует";"открытая сеть";"";"55.812408";"37.566728";"880036107";"01010000001EDD088B8AC842401F813FFCFCE74B40";"";
"4";"Государственное бюджетное учреждение культуры города Москвы «Централизованная библиотечная система ВАО» Библиотека №87";"Восточный административный округ";"район Соколиная Гора";"город Москва, 9-я улица Соколиной Горы, дом 17";"10";"Moscow_WiFi_Free";"50";"действует";"открытая сеть";"";"55.773160";"37.736006";"880036108";"010100000074D4D17135DE4240A54929E8F6E24B40";"";
"57";"Государственное бюджетное учреждение культуры города Москвы «Централизованная библиотечная система ВАО» Детская библиотека №103";"Восточный административный округ";"район Соколиная Гора";"Российская Федерация, город Москва, внутригородская территория муниципальный округ Соколиная Гора, Ткацкая улица, дом 28/14";"8";"Moscow_WiFi_Free";"50";"действует";"открытая сеть";"";"55.786298";"37.733976";"880036109";"01010000004206F2ECF2DD42408274B169A5E44B40";"";
"5";"Государственное бюджетное учреждение культуры города Москвы «Централизованная библиотечная система ЗАО» Библиотека №210 Культурный центр Алесандра Трифоновича Твардовского";"Западный административный округ";"район Фили-Давыдково";"город Москва, Аминьевское шоссе, дом 24";"6";"Moscow_WiFi_Free";"50";"действует";"открытая сеть";"";"55.715920";"37.452974";"880036110";"01010000001AF8510DFBB94240B2463D44A3DB4B40";"";
"58";"Государственное бюджетное учреждение культуры города Москвы «Централизованная библиотечная система ЦАО» Библиотека №12 имени Ивана Алексеевича Бунина";"Центральный административный округ";"Пресненский район";"город Москва, улица 1905 Года, дом 3";"9";"Moscow_WiFi_Free";"50";"действует";"открытая сеть";"";"55.758316";"37.557843";"880036111";"0101000000B9A6406667C742404B04AA7F10E14B40";"";
"6";"Государственное бюджетное учреждение культуры города Москвы «Централизованная библиотечная система ЦАО» Библиотека №20 имени Антона Антоновича Дельвига";"Центральный административный округ";"Басманный район";"город Москва, Аптекарский переулок, дом 8/2";"8";"Moscow_WiFi_Free";"50";"действует";"открытая сеть";"";"55.768115";"37.676244";"880036113";"0101000000E00ED4298FD642409548A29751E24B40";"";
"59";"Государственное бюджетное учреждение культуры города Москвы «Централизованная библиотечная система САО» Библиотека №28";"Северный административный округ";"район Сокол";"город Москва, улица Алабяна, дом 12, корпус 4";"4";"Moscow_WiFi_Free";"50";"действует";"открытая сеть";"";"55.799957";"37.501735";"880036114";"010100000018213CDA38C04240679AB0FD64E64B40";"";
"7";"Государственное бюджетное учреждение культуры города Москвы «Централизованная библиотечная система СВАО» Библиотека №67";"Северо-Восточный административный округ";"Останкинский район";"Российская Федерация, город Москва, внутригородская территория муниципальный округ Останкинский, Аргуновская улица, дом 14, строение 2";"6";"Moscow_WiFi_Free";"50";"действует";"открытая сеть";"";"55.818316";"37.620905";"880036115";"01010000002176A6D079CF424093E52494BEE84B40";"";
"60";"Государственное бюджетное учреждение культуры города Москвы «Централизованная библиотечная система ЗАО» Библиотека №199 имени Эдуарда Георгиевича Багрицкого";"Западный административный округ";"Можайский район";"город Москва, улица Багрицкого, дом 51";"6";"Moscow_WiFi_Free";"50";"действует";"открытая сеть";"";"55.719445";"37.437748";"880036116";"0101000000D8F15F2008B84240A72215C616DC4B40";"";
"8";"Государственное бюджетное учреждение культуры города Москвы «Централизованная библиотечная система ЮАО» Библиотека №148 имени Федора Ивановича Тютчева";"Южный административный округ";"Нагорный район";"город Москва, Артековская улица, дом 2, корпус 1";"9";"Moscow_WiFi_Free";"50";"действует";"открытая сеть";"";"55.650510";"37.612847";"880036117";"0101000000D2393FC571CE424048DC63E943D34B40";"";
"61";"Государственное бюджетное учреждение культуры города Москвы «Централизованная библиотечная система ВАО» Библиотека №76 имени Михаила Юрьевича Лермонтова";"Восточный административный округ";"район Сокольники";"город Москва, улица Барболина, дом 6";"8";"Moscow_WiFi_Free";"50";"действует";"открытая сеть";"";"55.786516";"37.687848";"880036118";"01010000003C4F3C670BD84240EFE3688EACE44B40";"";
"62";"Государственное бюджетное учреждение культуры города Москвы «Централизованная библиотечная система ЦАО» Центральная детская библиотека №14";"Центральный административный округ";"район Замоскворечье";"город Москва, улица Бахрушина, дом 4, строение 1";"7";"Moscow_WiFi_Free";"50";"действует";"открытая сеть";"";"55.736437";"37.634003";"880036119";"01010000006F48A30227D142403D484F9143DE4B40";"";
"9";"Государственное бюджетное учреждение культуры города Москвы «Централизованная библиотечная система ЦАО» Библиотека №1 имени Александра Сергеевича Грибоедова";"Центральный административный округ";"Мещанский район";"город Москва, Банный переулок, дом 4, строение 2";"6";"Moscow_WiFi_Free";"50";"действует";"открытая сеть";"";"55.785675";"37.637811";"880036121";"0101000000B80375CAA3D14240742497FF90E44B40";"";
"63";"Государственное бюджетное учреждение культуры города Москвы «Централизованная библиотечная система СЗАО» Библиотека №245";"Северо-Западный административный округ";"район Щукино";"город Москва, улица Берзарина, дом 6, корпус 1";"6";"Moscow_WiFi_Free";"50";"действует";"открытая сеть";"";"55.788323";"37.493192";"880036122";"01010000000D535BEA20BF4240A1D79FC4E7E44B40";"";
"10";"Государственное бюджетное учреждение культуры города Москвы «Центральная универсальная научная библиотека имени Николая Алексеевича Некрасова»";"Центральный административный округ";"Басманный район";"город Москва, Бауманская улица, дом 58/25, строение 14";"11";"Moscow_WiFi_Free";"50";"действует";"открытая сеть";"";"55.767099";"37.678658";"880036123";"01010000009A95ED43DED64240ACE5CE4C30E24B40";"";
"64";"Государственное бюджетное учреждение культуры города Москвы «Центральная Городская Деловая Библиотека»";"Северо-Восточный административный округ";"Алексеевский район";"Российская Федерация, город Москва, внутригородская территория муниципальный округ Алексеевский, улица Бориса Галушкина, дом 19, корпус 1";"2";"Moscow_WiFi_Free";"50";"действует";"открытая сеть";"";"55.822503";"37.661293";"880036124";"01010000007009C03FA5D4424052EE3EC747E94B40";"";
"65";"Государственное бюджетное учреждение культуры города Москвы «Централизованная библиотечная система ЮЗАО» Библиотека №179";"Юго-Западный административный округ";"Ломоносовский район";"город Москва, улица Вавилова, дом 86";"5";"Moscow_WiFi_Free";"50";"действует";"открытая сеть";"";"55.676940";"37.541090";"880036125";"0101000000A818E76F42C5424058AD4CF8A5D64B40";"";
"66";"Государственное бюджетное учреждение культуры города Москвы «Централизованная библиотечная система СЗАО» Библиотека №234";"Северо-Западный административный округ";"район Покровское-Стрешнево";"город Москва, улица Габричевского, дом 8";"4";"Moscow_WiFi_Free";"50";"действует";"открытая сеть";"";"55.815767";"37.459110";"880036126";"01010000001FA2D11DC4BA4240F913950D6BE84B40";"";
"12";"Государственное бюджетное учреждение культуры города Москвы «Централизованная библиотечная система ЗАО» Детская библиотека №211 «Пионер»";"Западный административный округ";"район Дорогомилово";"город Москва, Большая Дорогомиловская улица, дом 7";"4";"Moscow_WiFi_Free";"50";"действует";"открытая сеть";"";"55.746051";"37.556927";"880036127";"010100000034A1496249C74240F51263997EDF4B40";"";
"67";"Государственное бюджетное учреждение культуры города Москвы «Централизованная библиотечная система ЮАО» Библиотека №146";"Южный административный округ";"район Орехово-Борисово Северное";"Российская Федерация, город Москва, внутригородская территория муниципальный округ Орехово-Борисово Северное, улица Генерала Белова, дом 29, корпус 3";"8";"Moscow_WiFi_Free";"50";"действует";"открытая сеть";"";"55.614953";"37.722657";"880036128";"0101000000DC9C4A0680DC4240DEC9A7C7B6CE4B40";"";
"13";"Государственное бюджетное учреждение культуры города Москвы «Централизованная библиотечная система ЦАО» Библиотека №1 имени Александра Сергеевича Грибоедова";"Центральный административный округ";"Мещанский район";"Российская Федерация, город Москва, внутригородская территория муниципальный округ Мещанский, Большая Переяславская улица, дом 15";"10";"Moscow_WiFi_Free";"50";"действует";"открытая сеть";"";"55.786759";"37.640048";"880036129";"010100000063EFC517EDD14240B66AD784B4E44B40";"";
"68";"Государственное бюджетное учреждение культуры города Москвы «Централизованная библиотечная система ЗАО» Библиотека №212 имени Тараса Григорьевича Шевченко";"Западный административный округ";"район Дорогомилово";"город Москва, улица Генерала Ермолова, дом 6";"6";"Moscow_WiFi_Free";"50";"действует";"открытая сеть";"";"55.737557";"37.516368";"880036130";"0101000000B859BC5818C24240CBF78C4468DE4B40";"";
"14";"Государственное бюджетное учреждение культуры города Москвы «Централизованная библиотечная система ЦАО» Библиотека №13 имени Николая Гавриловича Чернышевского";"Центральный административный округ";"район Замоскворечье";"город Москва, Большая Татарская улица, дом 32";"9";"Moscow_WiFi_Free";"50";"действует";"открытая сеть";"";"55.738328";"37.633113";"880036131";"010100000013D6C6D809D142404DDC2A8881DE4B40";"";
"69";"Государственное бюджетное учреждение культуры города Москвы «Централизованная библиотечная система ЗАО» Библиотека №217";"Западный административный округ";"район Раменки";"город Москва, улица Довженко, дом 6";"6";"Moscow_WiFi_Free";"50";"действует";"открытая сеть";"";"55.721807";"37.513610";"880036132";"01010000000473F4F8BDC142400E83F92B64DC4B40";"";
"15";"Государственное бюджетное учреждение культуры города Москвы «Централизованная библиотечная система ВАО» Центральная библиотека №70 имени Михаила Александровича Шолохова";"Восточный административный округ";"район Преображенское";"город Москва, Большая Черкизовская улица, дом 18/1";"5";"Moscow_WiFi_Free";"50";"действует";"открытая сеть";"";"55.797918";"37.730401";"880036133";"01010000009CFBABC77DDD4240E371512D22E64B40";"";
"70";"Государственное бюджетное учреждение культуры города Москвы «Централизованная библиотечная система САО» Центральная библиотека №21";"Северный административный округ";"Войковский район";"город Москва, улица Клары Цеткин, дом 11, корпус 1";"9";"Moscow_WiFi_Free";"50";"действует";"открытая сеть";"";"55.819274";"37.516546";"880036134";"01010000009770E82D1EC24240473B6EF8DDE84B40";"";
"16";"Государственное бюджетное учреждение культуры города Москвы «Централизованная библиотечная система ЦАО» «Центральная библиотека №15 имени Василия Осиповича Ключевского";"Центральный административный округ";"Таганский район";"город Москва, Большой Факельный переулок, дом 3, строение 2";"5";"Moscow_WiFi_Free";"50";"действует";"открытая сеть";"";"55.742630";"37.663692";"880036135";"0101000000F44E05DCF3D44240A583F57F0EDF4B40";"";
"71";"Государственное бюджетное учреждение культуры города Москвы «Централизованная библиотечная система ВАО» Библиотека №83";"Восточный административный округ";"район Северное Измайлово";"город Москва, улица Константина Федина, дом 2, корпус 1";"8";"Moscow_WiFi_Free";"50";"действует";"открытая сеть";"";"55.806009";"37.791405";"880036136";"0101000000087250C24CE542400EA48B4D2BE74B40";"";
"17";"Государственное бюджетное учреждение культуры города Москвы «Централизованная библиотечная система СВАО» Библиотека №61";"Северо-Восточный административный округ";"Бабушкинский район";"Российская Федерация, город Москва, внутригородская территория муниципальный округ Бабушкинский, Верхоянская улица, дом 6, корпус 1";"4";"Moscow_WiFi_Free";"50";"действует";"открытая сеть";"";"55.858422";"37.669261";"880036137";"01010000007FBE2D58AAD542405D15A8C5E0ED4B40";"";
"72";"Государственное бюджетное учреждение культуры города Москвы «Централизованная библиотечная система САО» Детская библиотека №43 Культурный центр Виктора Юзефовича Драгунского";"Северный административный округ";"Хорошёвский район";"город Москва, улица Куусинена, дом 17, корпус 2";"7";"Moscow_WiFi_Free";"50";"действует";"открытая сеть";"";"55.785655";"37.511751";"880036138";"0101000000FF58880E81C142402D78D15790E44B40";"";
"18";"Государственное бюджетное учреждение культуры города Москвы «Централизованная библиотечная система ЮВАО» Библиотека №122 имени Александра Степановича Грина";"Юго-Восточный административный округ";"район Лефортово";"город Москва, Волочаевская улица, дом 14А";"13";"Moscow_WiFi_Free";"50";"действует";"открытая сеть";"";"55.755986";"37.679143";"880036139";"010100000057276728EED64240EF1D3526C4E04B40";"";
"93";"Государственное бюджетное учреждение культуры города Москвы «Централизованная библиотечная система ЮАО» Библиотека №151";"Южный административный округ";"район Чертаново Центральное";"Российская Федерация, город Москва, внутригородская территория муниципальный округ Чертаново Центральное, Чертановская улица, дом 27, корпус 2";"7";"Moscow_WiFi_Free";"50";"действует";"открытая сеть";"";"55.616554";"37.598923";"880036141";"01010000003EE94482A9CC4240E71BD13DEBCE4B40";"";
"73";"Государственное бюджетное учреждение культуры города Москвы «Централизованная библиотечная система СЗАО» Библиотека №246";"Северо-Западный административный округ";"район Щукино";"город Москва, улица Маршала Конева, дом 16";"6";"Moscow_WiFi_Free";"50";"действует";"открытая сеть";"";"55.795459";"37.484622";"880036142";"01010000000876FC1708BE42408927BB99D1E54B40";"";
"94";"Государственное бюджетное учреждение культуры города Москвы «Централизованная библиотечная система ЦАО» Библиотека №19 имени Федора Михайловича Достоевского";"Центральный административный округ";"Басманный район";"город Москва, Чистопрудный бульвар, дом 23, строение 1";"5";"Moscow_WiFi_Free";"50";"действует";"открытая сеть";"";"55.760276";"37.646804";"880036143";"010100000004763579CAD2424083F755B950E14B40";"";
"95";"Государственное бюджетное учреждение культуры города Москвы «Централизованная библиотечная система ЮАО» Библиотека №148 имени Федора Ивановича Тютчева";"Южный административный округ";"Нагорный район";"город Москва, Чонгарский бульвар, дом 10, корпус 2";"5";"Moscow_WiFi_Free";"50";"действует";"открытая сеть";"";"55.654157";"37.613512";"880036145";"01010000000EDAAB8F87CE424088B9A46ABBD34B40";"";
"96";"Государственное бюджетное учреждение культуры города Москвы «Централизованная библиотечная система ЦАО» Библиотека №11 имени Дениса Васильевича Давыдова Отдел «Центр детского развития»";"Центральный административный округ";"Пресненский район";"город Москва, Шмитовский проезд, дом 46, корпус 2";"8";"Moscow_WiFi_Free";"50";"действует";"открытая сеть";"";"55.756108";"37.520015";"880036146";"0101000000F836FDD98FC242403A1F9E25C8E04B40";"";
"1";"Государственное бюджетное учреждение культуры города Москвы «Централизованная библиотечная система ВАО» Библиотека №77";"Восточный административный округ";"район Измайлово";"город Москва, 11-я Парковая улица, дом 21";"8";"Moscow_WiFi_Free";"50";"действует";"открытая сеть";"";"55.794517";"37.805159";"880036147";"0101000000408A3A730FE74240DA8EA9BBB2E54B40";"";
"97";"Государственное бюджетное учреждение культуры города Москвы «Централизованная библиотечная система ЮВАО» Библиотека №132";"Юго-Восточный административный округ";"район Печатники";"город Москва, Шоссейная улица, дом 50";"6";"Moscow_WiFi_Free";"50";"действует";"открытая сеть";"";"55.679377";"37.721858";"880036148";"0101000000902DCBD765DC4240CA5356D3F5D64B40";"";
"98";"Государственное бюджетное учреждение культуры города Москвы «Централизованная библиотечная система ЮАО» Детская библиотека №156";"Южный административный округ";"район Орехово-Борисово Северное";"город Москва, Домодедовская улица, дом 1, корпус 1";"7";"Moscow_WiFi_Free";"50";"действует";"открытая сеть";"";"55.616209";"37.706452";"880036149";"0101000000CE18E6046DDA42401C40BFEFDFCE4B40";"";
"99";"Государственное бюджетное учреждение культуры города Москвы «Централизованная библиотечная система ЮАО» Библиотека №157";"Южный административный округ";"район Чертаново Южное";"город Москва, улица Газопровод, дом 9, корпус 2";"6";"Moscow_WiFi_Free";"50";"действует";"открытая сеть";"";"55.589982";"37.607341";"880036151";"01010000008D429259BDCD4240459DB98784CB4B40";"";
"100";"Государственное бюджетное учреждение культуры города Москвы «Централизованная библиотечная система ЮАО» Библиотека №159";"Южный административный округ";"район Нагатино-Садовники";"Российская Федерация, город Москва, внутригородская территория муниципальный округ Нагатино-Садовники, Нагатинская улица, дом 11, корпус 1";"5";"Moscow_WiFi_Free";"50";"действует";"открытая сеть";"";"55.680194";"37.639312";"880036152";"01010000005DF8C1F9D4D14240BC77D49810D74B40";"";
"101";"Государственное бюджетное учреждение культуры города Москвы «Централизованная библиотечная система ЮАО» Библиотека №162 имени Константина Михайловича Симонова";"Южный административный округ";"район Нагатинский Затон";"Российская Федерация, город Москва, внутригородская территория муниципальный округ Нагатинский Затон, Якорная улица, дом 5, корпус 2";"7";"Moscow_WiFi_Free";"50";"действует";"открытая сеть";"";"55.686716";"37.686347";"880036157";"0101000000965AEF37DAD74240E9D1544FE6D74B40";"";
"102";"Государственное бюджетное учреждение культуры города Москвы «Централизованная библиотечная система ЮАО» Библиотека №165";"Южный административный округ";"район Нагатино-Садовники";"Российская Федерация, город Москва, внутригородская территория муниципальный округ Нагатино-Садовники, Нагатинская набережная, дом 20, корпус 2";"4";"Moscow_WiFi_Free";"50";"действует";"открытая сеть";"";"55.681443";"37.655499";"880036158";"0101000000C5C72764E7D34240488B338639D74B40";"";
"103";"Государственное бюджетное учреждение культуры города Москвы «Централизованная библиотечная система ЮАО» Библиотека №165";"Южный административный округ";"район Нагатинский Затон";"город Москва, проспект Андропова, дом 17, корпус 1";"4";"Moscow_WiFi_Free";"50";"действует";"открытая сеть";"";"55.682676";"37.667070";"880036159";"01010000004512BD8C62D54240CEE15AED61D74B40";"";
"104";"Государственное бюджетное учреждение культуры города Москвы «Централизованная библиотечная система ЮВАО» Библиотека №125";"Юго-Восточный административный округ";"район Лефортово";"Российская Федерация, город Москва, внутригородская территория муниципальный округ Лефортово, Сторожевая улица, дом 22, корпус 1";"5";"Moscow_WiFi_Free";"50";"действует";"открытая сеть";"";"55.765595";"37.711536";"880036160";"01010000009DF6949C13DB4240957D5704FFE14B40";"";
"105";"Государственное бюджетное учреждение культуры города Москвы «Централизованная библиотечная система ЮВАО» Библиотека №131";"Юго-Восточный административный округ";"район Марьино";"Российская Федерация, город Москва, внутригородская территория муниципальный округ Марьино, Братиславская улица, дом 26";"5";"Moscow_WiFi_Free";"50";"действует";"открытая сеть";"";"55.654310";"37.763728";"880036161";"01010000000E85CFD6C1E142400FB9196EC0D34B40";"";
"74";"Государственное бюджетное учреждение культуры города Москвы «Централизованная библиотечная система ЮАО» Детская библиотека №154";"Южный административный округ";"район Царицыно";"город Москва, улица Медиков, дом 22, корпус 3";"5";"Moscow_WiFi_Free";"50";"действует";"открытая сеть";"";"55.631717";"37.677858";"880038338";"01010000007EAA0A0DC4D64240E3A9471ADCD04B40";"";
"23";"Государственное бюджетное учреждение культуры города Москвы «Централизованная библиотечная система ЮВАО» Центральная библиотека №106";"Юго-Восточный административный округ";"Рязанский район";"Российская Федерация, город Москва, внутригородская территория муниципальный округ Рязанский, Зарайская улица, дом 56А";"9";"Moscow_WiFi_Free";"50";"действует";"открытая сеть";"";"55.727192";"37.774292";"880038340";"0101000000F8C610001CE34240D8F4A0A014DD4B40";"";
"38";"Государственное бюджетное учреждение культуры города Москвы «Централизованная библиотечная система ЗАО» Библиотека №218";"Западный административный округ";"район Очаково-Матвеевское";"город Москва, Нежинская улица, дом 13";"11";"Moscow_WiFi_Free";"50";"действует";"открытая сеть";"";"55.706431";"37.470976";"880038346";"0101000000B7990AF148BC4240B7F0BC546CDA4B40";"";
"40";"Государственное бюджетное учреждение культуры города Москвы «Централизованная библиотечная система ЦАО» Библиотека №5 имени Максимилиана Александровича Волошина";"Центральный административный округ";"район Хамовники";"город Москва, Новодевичий проезд, дом 10";"7";"Moscow_WiFi_Free";"50";"действует";"открытая сеть";"";"55.729873";"37.557520";"880038347";"0101000000D66EBBD05CC74240E09D7C7A6CDD4B40";"";
"201";"Государственное бюджетное учреждение культуры города Москвы «Централизованная библиотечная система ЮАО» Библиотека №160";"Южный административный округ";"район Бирюлёво Западное";"Российская Федерация, город Москва, внутригородская территория муниципальный округ Бирюлево Западное, Медынская улица, дом 11, строение 2";"5";"Moscow_WiFi_Free";"50";"действует";"открытая сеть";"";"55.581688";"37.649723";"894788624";"0101000000C13A8E1F2AD34240E23C9CC074CA4B40";"";
"202";"Государственное бюджетное учреждение культуры города Москвы «Централизованная библиотечная система ЮВАО» Библиотека №105";"Юго-Восточный административный округ";"район Люблино";"Российская Федерация, город Москва, внутригородская территория муниципальный округ Люблино, улица Головачёва, дом 3, корпус 2";"2";"Moscow_WiFi_Free";"50";"действует";"открытая сеть";"";"55.675355";"37.805591";"894788638";"0101000000D9791B9B1DE7424055185B0872D64B40";"";
"203";"Государственное бюджетное учреждение культуры города Москвы «Централизованная библиотечная система ЮВАО» Библиотека №105";"Юго-Восточный административный округ";"район Люблино";"город Москва, Тихорецкий бульвар, дом 12, корпус 1";"2";"Moscow_WiFi_Free";"50";"действует";"открытая сеть";"";"55.677697";"37.774454";"894788649";"0101000000D120054F21E3424075CC79C6BED64B40";"";
"204";"Государственное бюджетное учреждение культуры города Москвы «Централизованная библиотечная система ЮВАО» Библиотека №106";"Юго-Восточный административный округ";"Рязанский район";"город Москва, Шатурская улица, дом 49, корпус 1";"4";"Moscow_WiFi_Free";"50";"действует";"открытая сеть";"";"55.726847";"37.774360";"894788663";"010100000050AA7D3A1EE342400D198F5209DD4B40";"";
"205";"Государственное бюджетное учреждение культуры города Москвы «Централизованная библиотечная система ЮВАО» Библиотека №107";"Юго-Восточный административный округ";"Нижегородский район";"город Москва, Перовское шоссе, дом 16/2";"5";"Moscow_WiFi_Free";"50";"действует";"открытая сеть";"";"55.736133";"37.751421";"894788674";"0101000000894336902EE04240D1402C9B39DE4B40";"";
"206";"Государственное бюджетное учреждение культуры города Москвы «Централизованная библиотечная система ЮВАО» Библиотека №109";"Юго-Восточный административный округ";"район Выхино-Жулебино";"город Москва, Ферганский проезд, дом 3, корпус 3";"7";"Moscow_WiFi_Free";"50";"действует";"открытая сеть";"";"55.695995";"37.826060";"894788686";"010100000052448655BCE94240FB96395D16D94B40";"";
"207";"Государственное бюджетное учреждение культуры города Москвы «Централизованная библиотечная система ЮВАО» Библиотека №109";"Юго-Восточный административный округ";"район Выхино-Жулебино";"город Москва, Волгоградский проспект, дом 191";"5";"Moscow_WiFi_Free";"50";"действует";"открытая сеть";"";"55.693125";"37.818714";"894788698";"01010000008063CF9ECBE842401F85EB51B8D84B40";"";
"208";"Государственное бюджетное учреждение культуры города Москвы «Централизованная библиотечная система ЮВАО» Библиотека №112";"Юго-Восточный административный округ";"район Кузьминки";"Российская Федерация, город Москва, внутригородская территория муниципальный округ Кузьминки, Волгоградский проспект, дом 91";"1";"Moscow_WiFi_Free";"50";"действует";"открытая сеть";"";"55.708191";"37.749400";"894788705";"0101000000ABCFD556ECDF42402829B000A6DA4B40";"";
"209";"Государственное бюджетное учреждение культуры города Москвы «Централизованная библиотечная система ЮВАО» Библиотека №112";"Юго-Восточный административный округ";"район Кузьминки";"Российская Федерация, город Москва, внутригородская территория муниципальный округ Кузьминки, Жигулёвская улица, дом 6, корпус 2";"2";"Moscow_WiFi_Free";"50";"действует";"открытая сеть";"";"55.711417";"37.759668";"894788714";"0101000000ABE80FCD3CE14240C26856B60FDB4B40";"";
"137";"Государственное бюджетное учреждение культуры города Москвы «Централизованная библиотечная система СЗАО» Библиотека №244";"Северо-Западный административный округ";"район Щукино";"город Москва, улица Народного Ополчения, дом 37, корпус 1";"3";"Moscow_WiFi_Free";"50";"действует";"открытая сеть";"";"55.790570";"37.487748";"894811590";"01010000003F58C6866EBE42407099D36531E54B40";"";
"138";"Государственное бюджетное учреждение культуры города Москвы «Централизованная библиотечная система СЗАО» Библиотека №248";"Северо-Западный административный округ";"район Строгино";"город Москва, улица Маршала Катукова, дом 19, корпус 2";"2";"Moscow_WiFi_Free";"50";"действует";"открытая сеть";"";"55.807946";"37.410151";"894811591";"0101000000FAB5F5D37FB442408E7747C66AE74B40";"";
"129";"Государственное бюджетное учреждение культуры города Москвы «Централизованная библиотечная система ЮЗАО» Библиотека №186 имени Сергея Александровича Есенина";"Юго-Западный административный округ";"Академический район";"город Москва, улица Кржижановского, дом 15, корпус 5";"9";"Moscow_WiFi_Free";"50";"действует";"открытая сеть";"";"55.680458";"37.572603";"894811592";"0101000000B64B1B0E4BC942409A266C3F19D74B40";"";
"139";"Государственное бюджетное учреждение культуры города Москвы «Централизованная библиотечная система СЗАО» Библиотека №248";"Северо-Западный административный округ";"район Строгино";"город Москва, улица Маршала Катукова, дом 11, корпус 2";"3";"Moscow_WiFi_Free";"50";"действует";"открытая сеть";"";"55.811346";"37.405247";"894811593";"0101000000ACE63922DFB34240C6DE8B2FDAE74B40";"";
"130";"Государственное бюджетное учреждение культуры города Москвы «Централизованная библиотечная система ЮЗАО» Библиотека №189 «Патриот»";"Юго-Западный административный округ";"район Южное Бутово";"город Москва, улица Брусилова, дом 27";"9";"Moscow_WiFi_Free";"50";"действует";"открытая сеть";"";"55.500580";"37.592393";"894811594";"01010000008EB0A888D3CB42400E84640113C04B40";"";
"140";"Государственное бюджетное учреждение культуры города Москвы «Централизованная библиотечная система СЗАО» Библиотека №248";"Северо-Западный административный округ";"район Строгино";"город Москва, улица Твардовского, дом 21, корпус 2";"4";"Moscow_WiFi_Free";"50";"действует";"открытая сеть";"";"55.795798";"37.403414";"894811595";"0101000000D05FE811A3B34240711C78B5DCE54B40";"";
"131";"Государственное бюджетное учреждение культуры города Москвы «Централизованная библиотечная система ЮЗАО» Библиотека №190";"Юго-Западный административный округ";"район Коньково";"город Москва, улица Миклухо-Маклая, дом 40, корпус 1";"3";"Moscow_WiFi_Free";"50";"действует";"открытая сеть";"";"55.638729";"37.538494";"894811596";"0101000000CE8B135FEDC44240DE0033DFC1D14B40";"";
"141";"Государственное бюджетное учреждение культуры города Москвы «Централизованная библиотечная система САО» Библиотека №21";"Северный административный округ";"Войковский район";"город Москва, улица Космонавта Волкова, дом 3";"3";"Moscow_WiFi_Free";"50";"действует";"открытая сеть";"";"55.815822";"37.505921";"894811597";"010100000008AEF204C2C04240BCADF4DA6CE84B40";"";
"162";"Государственное бюджетное учреждение культуры города Москвы «Централизованная библиотечная система ЗАО» Библиотека №214 имени Юрия Алексеевича Гагарина";"Западный административный округ";"район Тропарёво-Никулино";"город Москва, проспект Вернадского, дом 109";"9";"Moscow_WiFi_Free";"50";"действует";"открытая сеть";"";"55.662183";"37.483533";"894811598";"0101000000B5C4CA68E4BD4240CC7B9C69C2D44B40";"";
"132";"Государственное бюджетное учреждение культуры города Москвы «Централизованная библиотечная система ЮЗАО» Библиотека №196";"Юго-Западный административный округ";"район Зюзино";"город Москва, Симферопольский бульвар, дом 24, корпус 1";"12";"Moscow_WiFi_Free";"50";"действует";"открытая сеть";"";"55.645812";"37.603262";"894811599";"0101000000B47570B037CD4240A3AEB5F7A9D24B40";"";
"163";"Государственное бюджетное учреждение культуры города Москвы «Централизованная библиотечная система САО» Библиотека №37";"Северный административный округ";"район Восточное Дегунино";"Российская Федерация, город Москва, внутригородская территория муниципальный округ Восточное Дегунино, Дубнинская улица, дом 16, корпус 1";"9";"Moscow_WiFi_Free";"50";"действует";"открытая сеть";"";"55.868829";"37.562919";"894811600";"010100000005A6D3BA0DC842407F68E6C935EF4B40";"";
"142";"Государственное бюджетное учреждение культуры города Москвы «Централизованная библиотечная система САО» Библиотека №23";"Северный административный округ";"Тимирязевский район";"город Москва, Астрадамская улица, дом 4";"9";"Moscow_WiFi_Free";"50";"действует";"открытая сеть";"";"55.811730";"37.565946";"894811601";"0101000000A8A624EB70C842404E97C5C4E6E74B40";"";
"133";"Государственное бюджетное учреждение культуры города Москвы «Централизованная библиотечная система СЗАО» Библиотека №227";"Северо-Западный административный округ";"район Северное Тушино";"город Москва, улица Героев Панфиловцев, дом 12, корпус 1";"5";"Moscow_WiFi_Free";"50";"действует";"открытая сеть";"";"55.858771";"37.429672";"894811602";"0101000000E200FA7DFFB6424069E04735ECED4B40";"";
"164";"Государственное бюджетное учреждение культуры города Москвы «Централизованная библиотечная система САО» Библиотека №41";"Северный административный округ";"Хорошёвский район";"город Москва, Хорошёвское шоссе, дом 17";"6";"Moscow_WiFi_Free";"50";"действует";"открытая сеть";"";"55.775854";"37.531693";"894811603";"01010000008D4127840EC44240433C122F4FE34B40";"";
"143";"Государственное бюджетное учреждение культуры города Москвы «Централизованная библиотечная система САО» Библиотека №24";"Северный административный округ";"район Сокол";"город Москва, Новопесчаная улица, дом 23, корпус 7";"4";"Moscow_WiFi_Free";"50";"действует";"открытая сеть";"";"55.792989";"37.512999";"894811604";"0101000000BBF083F3A9C142403B8BDEA980E54B40";"";
"134";"Государственное бюджетное учреждение культуры города Москвы «Централизованная библиотечная система СЗАО» Библиотека №232";"Северо-Западный административный округ";"район Покровское-Стрешнево";"город Москва, 2-й Тушинский проезд, дом 8";"5";"Moscow_WiFi_Free";"50";"действует";"открытая сеть";"";"55.835174";"37.418973";"894811605";"0101000000197442E8A0B54240193C4CFBE6EA4B40";"";
"144";"Государственное бюджетное учреждение культуры города Москвы «Централизованная библиотечная система САО» Библиотека №31";"Северный административный округ";"район Аэропорт";"город Москва, Балтийская улица, дом 4";"5";"Moscow_WiFi_Free";"50";"действует";"открытая сеть";"";"55.807542";"37.512964";"894811606";"01010000003E03EACDA8C14240BE1248895DE74B40";"";
"135";"Государственное бюджетное учреждение культуры города Москвы «Централизованная библиотечная система СЗАО» Библиотека №235";"Северо-Западный административный округ";"район Хорошёво-Мнёвники";"город Москва, улица Демьяна Бедного, дом 16";"4";"Moscow_WiFi_Free";"50";"действует";"открытая сеть";"";"55.776725";"37.488763";"894811607";"0101000000573F36C98FBE4240287E8CB96BE34B40";"";
"145";"Государственное бюджетное учреждение культуры города Москвы «Централизованная библиотечная система САО» Библиотека №33";"Северный административный округ";"район Беговой";"город Москва, 1-й Боткинский проезд, дом 4";"3";"Moscow_WiFi_Free";"50";"действует";"открытая сеть";"";"55.782972";"37.556972";"894811608";"0101000000D464C6DB4AC7424084D72E6D38E44B40";"";
"136";"Государственное бюджетное учреждение культуры города Москвы «Централизованная библиотечная система СЗАО» Детская библиотека №238";"Северо-Западный административный округ";"район Митино";"город Москва, улица Барышиха, дом 21";"3";"Moscow_WiFi_Free";"50";"действует";"открытая сеть";"";"55.844834";"37.347494";"894811609";"010100000032C7F2AE7AAC42404146408523EC4B40";"";
"146";"Государственное бюджетное учреждение культуры города Москвы «Централизованная библиотечная система САО» Библиотека №36";"Северный административный округ";"район Беговой";"город Москва, улица Правды, дом 11";"3";"Moscow_WiFi_Free";"50";"действует";"открытая сеть";"";"55.785837";"37.578253";"894811610";"01010000002DE8BD3104CA42404E7E8B4E96E44B40";"";
"147";"Государственное бюджетное учреждение культуры города Москвы «Централизованная библиотечная система САО» Библиотека №39";"Северный административный округ";"Тимирязевский район";"город Москва, Дмитровское шоссе, дом 25, корпус 1";"3";"Moscow_WiFi_Free";"50";"действует";"открытая сеть";"";"55.825108";"37.571228";"894811611";"01010000009D47C5FF1DC9424080D591239DE94B40";"";
"148";"Государственное бюджетное учреждение культуры города Москвы «Централизованная библиотечная система САО» Библиотека №40";"Северный административный округ";"Савёловский район";"город Москва, 1-я Хуторская улица, дом 2, корпус 2";"6";"Moscow_WiFi_Free";"50";"действует";"открытая сеть";"";"55.802012";"37.566889";"894811612";"010100000028BB99D18FC84240F17F4754A8E64B40";"";
"149";"Государственное бюджетное учреждение культуры города Москвы «Центральная городская молодежная библиотека имени Михаила Аркадьевича Светлова»";"Центральный административный округ";"Пресненский район";"Российская Федерация, город Москва, внутригородская территория муниципальный округ Пресненский, Большая Садовая улица, дом 1";"3";"Moscow_WiFi_Free";"50";"действует";"открытая сеть";"";"55.766309";"37.590623";"894811613";"0101000000F9A1D28899CB4240B3D0CE6916E24B40";"";
"210";"Государственное бюджетное учреждение культуры города Москвы «Централизованная библиотечная система ЮВАО» Библиотека №114";"Юго-Восточный административный округ";"район Текстильщики";"Российская Федерация, город Москва, внутригородская территория муниципальный округ Текстильщики, Саратовская улица, дом 18/10";"4";"Moscow_WiFi_Free";"50";"действует";"открытая сеть";"";"55.715748";"37.741297";"894811614";"0101000000BCCFF1D1E2DE4240B51666A19DDB4B40";"";
"150";"Государственное бюджетное учреждение культуры города Москвы «Централизованная библиотечная система ЦАО» Библиотека №8 имени Антона Павловича Чехова";"Центральный административный округ";"Тверской район";"Российская Федерация, город Москва, внутригородская территория муниципальный округ Тверской, улица Большая Дмитровка, дом 23, строение 1";"5";"Moscow_WiFi_Free";"50";"действует";"открытая сеть";"";"55.765985";"37.610021";"894811615";"0101000000C66F0A2B15CE4240001DE6CB0BE24B40";"";
"211";"Государственное бюджетное учреждение культуры города Москвы «Централизованная библиотечная система ЮВАО» Библиотека №117";"Юго-Восточный административный округ";"район Некрасовка";"Российская Федерация, город Москва, внутригородская территория муниципальный округ Некрасовка, Рождественская улица, дом 12";"1";"Moscow_WiFi_Free";"50";"действует";"открытая сеть";"";"55.702556";"37.917205";"894811616";"0101000000255D33F966F54240E6CDE15AEDD94B40";"";
"151";"Государственное бюджетное учреждение культуры города Москвы «Централизованная библиотечная система ЦАО» Библиотека №2 имени Юрия Валентиновича Трифонова";"Центральный административный округ";"Тверской район";"город Москва, Лесная улица, дом 63, строение 1";"7";"Moscow_WiFi_Free";"50";"действует";"открытая сеть";"";"55.783119";"37.594845";"894811617";"0101000000359886E123CC424028F04E3E3DE44B40";"";
"165";"Государственное бюджетное учреждение культуры города Москвы «Централизованная библиотечная система СВАО» Библиотека №56";"Северо-Восточный административный округ";"район Отрадное";"Российская Федерация, город Москва, внутригородская территория муниципальный округ Отрадное, улица Римского-Корсакова, дом 16";"8";"Moscow_WiFi_Free";"50";"действует";"открытая сеть";"";"55.873976";"37.606568";"894811618";"01010000006B662D05A4CD424094BE1072DEEF4B40";"";
"152";"Государственное бюджетное учреждение культуры города Москвы «Централизованная библиотечная система ЦАО» Библиотека №1 имени Александра Сергеевича Грибоедова";"Центральный административный округ";"Мещанский район";"Российская Федерация, город Москва, внутригородская территория муниципальный округ Мещанский, улица Сущёвский Вал, дом 66";"9";"Moscow_WiFi_Free";"50";"действует";"открытая сеть";"";"55.792124";"37.627813";"894811619";"01010000007880272D5CD042403830B95164E54B40";"";
"153";"Государственное бюджетное учреждение культуры города Москвы «Централизованная библиотечная система ВАО» Библиотека №96";"Восточный административный округ";"район Новогиреево";"город Москва, Свободный проспект, дом 24";"5";"Moscow_WiFi_Free";"50";"действует";"открытая сеть";"";"55.749841";"37.815363";"894811620";"010100000029AF95D05DE84240981936CAFADF4B40";"";
"166";"Государственное бюджетное учреждение культуры города Москвы «Централизованная библиотечная система СВАО» Библиотека №48";"Северо-Восточный административный округ";"Алексеевский район";"город Москва, Новоалексеевская улица, дом 1";"12";"Moscow_WiFi_Free";"50";"действует";"открытая сеть";"";"55.806828";"37.638889";"894811621";"01010000001763601DC7D14240A1BFD02346E74B40";"";
"154";"Государственное бюджетное учреждение культуры города Москвы «Централизованная библиотечная система ВАО» Библиотека №95";"Восточный административный округ";"район Новогиреево";"город Москва, Полимерная улица, дом 7, строение 2";"6";"Moscow_WiFi_Free";"50";"действует";"открытая сеть";"";"55.747049";"37.800020";"894811622";"0101000000AE122C0E67E6424037C1374D9FDF4B40";"";
"167";"Государственное бюджетное учреждение культуры города Москвы «Централизованная библиотечная система ЮЗАО» Библиотека №181";"Юго-Западный административный округ";"район Зюзино";"город Москва, Болотниковская улица, дом 44, корпус 1";"4";"Moscow_WiFi_Free";"50";"действует";"открытая сеть";"";"55.662547";"37.585781";"894811623";"010100000020CF2EDFFACA42400E881057CED44B40";"";
"155";"Государственное бюджетное учреждение культуры города Москвы «Централизованная библиотечная система ВАО» Библиотека №84";"Восточный административный округ";"район Соколиная Гора";"Российская Федерация, город Москва, внутригородская территория муниципальный округ Соколиная Гора, Щербаковская улица, дом 54";"7";"Moscow_WiFi_Free";"50";"действует";"открытая сеть";"";"55.781772";"37.738980";"894811624";"0101000000F4328AE596DE4240D976DA1A11E44B40";"";
"168";"Государственное бюджетное учреждение культуры города Москвы «Централизованная библиотечная система ЮАО» Библиотека №167";"Южный административный округ";"район Москворечье-Сабурово";"Российская Федерация, город Москва, внутригородская территория муниципальный округ Москворечье-Сабурово, Каширское шоссе, дом 53, корпус 6";"5";"Moscow_WiFi_Free";"50";"действует";"открытая сеть";"";"55.639842";"37.694271";"894811625";"0101000000D6C743DFDDD84240BA4DB857E6D14B40";"";
"156";"Государственное бюджетное учреждение культуры города Москвы «Централизованная библиотечная система ВАО» Библиотека №74";"Восточный административный округ";"район Богородское";"Российская Федерация, город Москва, внутригородская территория муниципальный округ Богородское, Краснобогатырская улица, дом 77";"12";"Moscow_WiFi_Free";"50";"действует";"открытая сеть";"";"55.806693";"37.707245";"894811626";"010100000038A1100187DA4240C1745AB741E74B40";"";
"157";"Государственное бюджетное учреждение культуры города Москвы «Централизованная библиотечная система ВАО» Библиотека №82";"Восточный административный округ";"район Восточное Измайлово";"город Москва, Измайловский проспект, дом 83";"7";"Moscow_WiFi_Free";"50";"действует";"открытая сеть";"";"55.788970";"37.801664";"894811628";"0101000000B6300BED9CE6424037C30DF8FCE44B40";"";
"170";"Государственное бюджетное учреждение культуры города Москвы «Централизованная библиотечная система ЮАО» Библиотека №150";"Южный административный округ";"район Братеево";"Российская Федерация, город Москва, внутригородская территория муниципальный округ Братеево, улица Борисовские Пруды, дом 10, корпус 5";"14";"Moscow_WiFi_Free";"50";"действует";"открытая сеть";"";"55.633597";"37.741190";"894811629";"0101000000A60F5D50DFDE4240FFEBDCB419D14B40";"";
"158";"Государственное бюджетное учреждение культуры города Москвы «Централизованная библиотечная система ВАО» Библиотека №86";"Восточный административный округ";"район Измайлово";"город Москва, Измайловский проезд, дом 18, корпус 2";"6";"Moscow_WiFi_Free";"50";"действует";"открытая сеть";"";"55.798252";"37.769801";"894811630";"0101000000CCB6D3D688E24240B9FB1C1F2DE64B40";"";
"171";"Государственное бюджетное учреждение культуры города Москвы «Централизованная библиотечная система ЮАО» Библиотека №161";"Южный административный округ";"Донской район";"город Москва, Загородное шоссе, дом 9, корпус 1";"10";"Moscow_WiFi_Free";"50";"действует";"открытая сеть";"";"55.692896";"37.607359";"894811632";"010100000034F790F0BDCD4240BDC3EDD0B0D84B40";"";
"159";"Государственное бюджетное учреждение культуры города Москвы «Централизованная библиотечная система ВАО» Библиотека №85";"Восточный административный округ";"район Измайлово";"Российская Федерация, город Москва, внутригородская территория муниципальный округ Измайлово, 3-я Парковая улица, дом 35";"5";"Moscow_WiFi_Free";"50";"действует";"открытая сеть";"";"55.796613";"37.781650";"894811633";"01010000008E75711B0DE44240C3482F6AF7E54B40";"";
"172";"Государственное бюджетное учреждение культуры города Москвы «Централизованная библиотечная система СЗАО» Библиотека №243 подразделение 1";"Северо-Западный административный округ";"район Щукино";"город Москва, улица Академика Бочвара, дом 5, корпус 1";"8";"Moscow_WiFi_Free";"50";"действует";"открытая сеть";"";"55.806727";"37.462649";"894811634";"010100000078431A1538BB42406DE690D442E74B40";"";
"160";"Государственное бюджетное учреждение культуры города Москвы «Централизованная библиотечная система ВАО» Библиотека №75 имени Александра Серафимовича Серафимовича";"Восточный административный округ";"район Метрогородок";"город Москва, Открытое шоссе, дом 27, корпус 8";"6";"Moscow_WiFi_Free";"50";"действует";"открытая сеть";"";"55.827788";"37.756838";"894811635";"01010000005E2F4D11E0E04240B8020AF5F4E94B40";"";
"161";"Государственное бюджетное учреждение культуры города Москвы «Централизованная библиотечная система ВАО» Библиотека №73 Культурный центр академика Дмитрия Сергеевича Лихачева";"Восточный административный округ";"район Гольяново";"город Москва, Амурская улица, дом 31";"11";"Moscow_WiFi_Free";"50";"действует";"открытая сеть";"";"55.814184";"37.796238";"894811636";"01010000008EEA7420EBE5424096766A2E37E84B40";"";
"173";"Государственное бюджетное учреждение культуры города Москвы «Централизованная библиотечная система ЮВАО» Библиотека №124";"Юго-Восточный административный округ";"Южнопортовый район";"Российская Федерация, город Москва, внутригородская территория муниципальный округ Южнопортовый, Велозаводская улица, дом 11/1";"6";"Moscow_WiFi_Free";"50";"действует";"открытая сеть";"";"55.711077";"37.667303";"894811637";"0101000000E7C2482F6AD542400AF8359204DB4B40";"";
"174";"Государственное бюджетное учреждение культуры города Москвы «Централизованная библиотечная система ЮВАО» Библиотека №119";"Юго-Восточный административный округ";"район Лефортово";"Российская Федерация, город Москва, внутригородская территория муниципальный округ Лефортово, шоссе Энтузиастов, дом 20";"5";"Moscow_WiFi_Free";"50";"действует";"открытая сеть";"";"55.750849";"37.715381";"894811638";"01010000000397C79A91DB4240FE9DEDD11BE04B40";"";
"175";"Государственное бюджетное учреждение культуры города Москвы «Централизованная библиотечная система ЮВАО» Библиотека №115";"Юго-Восточный административный округ";"район Кузьминки";"Российская Федерация, город Москва, внутригородская территория муниципальный округ Кузьминки, улица Фёдора Полетаева, дом 28";"8";"Moscow_WiFi_Free";"50";"действует";"открытая сеть";"";"55.708273";"37.783329";"894811639";"01010000001381EA1F44E44240E5D18DB0A8DA4B40";"";
"176";"Государственное бюджетное учреждение культуры города Москвы «Централизованная библиотечная система ЦАО» Библиотека №20 имени Антона Антоновича Дельвига";"Центральный административный округ";"Басманный район";"город Москва, улица Госпитальный Вал, дом 5, строение 2";"7";"Moscow_WiFi_Free";"50";"действует";"открытая сеть";"";"55.773388";"37.708967";"894811641";"0101000000BC783F6EBFDA4240368FC360FEE24B40";"";
"177";"Государственное бюджетное учреждение культуры города Москвы «Централизованная библиотечная система ЦАО» Библиотека №20 имени Антона Антоновича Дельвига";"Центральный административный округ";"Басманный район";"город Москва, Большая Почтовая улица, дом 18/20, корпус 18А";"6";"Moscow_WiFi_Free";"50";"действует";"открытая сеть";"";"55.774330";"37.690138";"894811642";"010100000009DD257156D84240E527D53E1DE34B40";"";
"178";"Государственное бюджетное учреждение культуры города Москвы «Централизованная библиотечная система ВАО» Библиотека №101";"Восточный административный округ";"район Косино-Ухтомский";"город Москва, Лухмановская улица, дом 17, корпус 1";"7";"Moscow_WiFi_Free";"50";"действует";"открытая сеть";"";"55.722788";"37.895499";"894811643";"0101000000E44C13B69FF242407BF8325184DC4B40";"";
"179";"Государственное бюджетное учреждение культуры города Москвы «Централизованная библиотечная система ВАО» Библиотека №100";"Восточный административный округ";"район Ивановское";"Российская Федерация, город Москва, внутригородская территория муниципальный округ Ивановское, Саянская улица, дом 7А";"7";"Moscow_WiFi_Free";"50";"действует";"открытая сеть";"";"55.768221";"37.831911";"894811645";"01010000006117450F7CEA4240DA8CD31055E24B40";"";
"180";"Государственное бюджетное учреждение культуры города Москвы «Централизованная библиотечная система ВАО» Библиотека №97";"Восточный административный округ";"район Новокосино";"Российская Федерация, город Москва, внутригородская территория муниципальный округ Новокосино, Новокосинская улица, дом 38, корпус 2";"7";"Moscow_WiFi_Free";"50";"действует";"открытая сеть";"";"55.741911";"37.869975";"894811646";"010100000036AB3E575BEF424076C58CF0F6DE4B40";"";
"182";"Государственное бюджетное учреждение культуры города Москвы «Централизованная библиотечная система ЗАО» Библиотека №222";"Западный административный округ";"район Солнцево";"город Москва, улица Богданова, дом 44";"4";"Moscow_WiFi_Free";"50";"действует";"открытая сеть";"";"55.651285";"37.396485";"894811649";"0101000000622D3E05C0B242400CB08F4E5DD34B40";"";
"183";"Государственное бюджетное учреждение культуры города Москвы «Централизованная библиотечная система ЗелАО» Библиотека №253";"Зеленоградский административный округ";"район Силино";"Российская Федерация, город Москва, внутригородская территория муниципальный округ Силино, город Зеленоград, корпус 1106";"8";"Moscow_WiFi_Free";"50";"действует";"открытая сеть";"";"55.997559";"37.190211";"894811650";"0101000000732B84D5589842404D6A6803B0FF4B40";"";
"184";"Государственное бюджетное учреждение культуры города Москвы «Централизованная библиотечная система ЗелАО» Библиотека №252";"Зеленоградский административный округ";"район Крюково";"город Москва, город Зеленоград, корпус 1462";"15";"Moscow_WiFi_Free";"50";"действует";"открытая сеть";"";"55.986956";"37.160075";"894811651";"01010000001FF46C567D944240A54BFF9254FE4B40";"";
"185";"Государственное бюджетное учреждение культуры города Москвы «Централизованная библиотечная система САО» Библиотека №30";"Северный административный округ";"Дмитровский район";"город Москва, улица Софьи Ковалевской, дом 10, корпус 1";"8";"Moscow_WiFi_Free";"50";"действует";"открытая сеть";"";"55.883974";"37.533128";"894811653";"01010000007B4ACE893DC44240D5415E0F26F14B40";"";
"186";"Государственное бюджетное учреждение культуры города Москвы «Централизованная библиотечная система САО» Детская библиотека №22 имени Льва Абрамовича Кассиля";"Северный административный округ";"район Левобережный";"город Москва, Ленинградское шоссе, дом 114";"9";"Moscow_WiFi_Free";"50";"действует";"открытая сеть";"";"55.866113";"37.463916";"894811654";"0101000000AA0B789961BB4240FAD170CADCEE4B40";"";
"187";"Государственное бюджетное учреждение культуры города Москвы «Централизованная библиотечная система СВАО» Библиотека №69";"Северо-Восточный административный округ";"район Бибирево";"Российская Федерация, город Москва, внутригородская территория муниципальный округ Бибирево, улица Корнейчука, дом 40";"5";"Moscow_WiFi_Free";"50";"действует";"открытая сеть";"";"55.897678";"37.628709";"894811655";"0101000000B6D9588979D042405A2BDA1CE7F24B40";"";
"188";"Государственное бюджетное учреждение культуры города Москвы «Централизованная библиотечная система ЮАО» Библиотека №137";"Южный административный округ";"район Бирюлёво Восточное";"город Москва, Липецкая улица, дом 10, корпус 1, строение 3";"5";"Moscow_WiFi_Free";"50";"действует";"открытая сеть";"";"55.598421";"37.670492";"894811656";"0101000000651D8EAED2D54240AC1E300F99CC4B40";"";
"189";"Государственное бюджетное учреждение культуры города Москвы «Централизованная библиотечная система ЮАО» Библиотека №138";"Южный административный округ";"район Бирюлёво Восточное";"город Москва, Касимовская улица, дом 21";"5";"Moscow_WiFi_Free";"50";"действует";"открытая сеть";"";"55.595459";"37.657236";"894811658";"01010000007EE02A4F20D44240EF8D210038CC4B40";"";
"190";"Государственное бюджетное учреждение культуры города Москвы «Централизованная библиотечная система Южного административного округа» Библиотека №139";"Южный административный округ";"район Царицыно";"город Москва, Каспийская улица, дом 20, корпус 2";"6";"Moscow_WiFi_Free";"50";"действует";"открытая сеть";"";"55.626117";"37.675311";"894811659";"010100000085D0419770D642401D3C139A24D04B40";"";
"191";"Государственное бюджетное учреждение культуры города Москвы «Централизованная библиотечная система ЮАО» Библиотека №140";"Южный административный округ";"район Бирюлёво Восточное";"город Москва, Липецкая улица, дом 54/21, строение 2";"3";"Moscow_WiFi_Free";"50";"действует";"открытая сеть";"";"55.578432";"37.683158";"894811660";"01010000001900AAB871D74240DD7A4D0F0ACA4B40";"";
"192";"Государственное бюджетное учреждение культуры города Москвы «Централизованная библиотечная система ЮАО» Библиотека №140";"Южный административный округ";"район Бирюлёво Восточное";"Российская Федерация, город Москва, внутригородская территория муниципальный округ Бирюлево Восточное, Лебедянская улица, дом 24, корпус 2";"6";"Moscow_WiFi_Free";"50";"действует";"открытая сеть";"";"55.583963";"37.685952";"894811661";"01010000001A506F46CDD742407A89B14CBFCA4B40";"";
"193";"Государственное бюджетное учреждение культуры города Москвы «Централизованная библиотечная система ЮАО» Библиотека №141";"Южный административный округ";"район Царицыно";"город Москва, Бакинская улица, дом 15";"7";"Moscow_WiFi_Free";"50";"действует";"открытая сеть";"";"55.620967";"37.659075";"894811662";"01010000003C4ED1915CD442409772BED87BCF4B40";"";
"194";"Государственное бюджетное учреждение культуры города Москвы «Централизованная библиотечная система ЮАО» Библиотека №143";"Южный административный округ";"район Чертаново Центральное";"Российская Федерация, город Москва, внутригородская территория муниципальный округ Чертаново Центральное, Чертановская улица, дом 41, корпус 3, строение 2";"3";"Moscow_WiFi_Free";"50";"действует";"открытая сеть";"";"55.608434";"37.595547";"894811663";"01010000008F1D54E23ACC424022E3512AE1CD4B40";"";
"195";"Государственное бюджетное учреждение культуры города Москвы «Централизованная библиотечная система ЮАО» Библиотека №147";"Южный административный округ";"район Орехово-Борисово Южное";"город Москва, Домодедовская улица, дом 44";"5";"Moscow_WiFi_Free";"50";"действует";"открытая сеть";"";"55.601188";"37.714882";"894811665";"0101000000E23FDD4081DB4240B35F77BAF3CC4B40";"";
"196";"Государственное бюджетное учреждение культуры города Москвы «Централизованная библиотечная система ЮАО» Библиотека №149";"Южный административный округ";"район Орехово-Борисово Южное";"город Москва, Ясеневая улица, дом 34, корпус 4";"4";"Moscow_WiFi_Free";"50";"действует";"открытая сеть";"";"55.603944";"37.744136";"894811666";"01010000005CE333D93FDF4240C64E78094ECD4B40";"";
"106";"Государственное бюджетное учреждение культуры города Москвы «Централизованная библиотечная система ВАО» Детская библиотека №71";"Восточный административный округ";"район Гольяново";"город Москва, Байкальская улица, дом 46, корпус 1";"6";"Moscow_WiFi_Free";"50";"действует";"открытая сеть";"";"55.816960";"37.819343";"894811667";"0101000000709A3E3BE0E84240F111312592E84B40";"";
"197";"Государственное бюджетное учреждение культуры города Москвы «Централизованная библиотечная система ЮАО» Библиотека №150";"Южный административный округ";"район Братеево";"город Москва, Ключевая улица, дом 10, корпус 2";"17";"Moscow_WiFi_Free";"50";"действует";"открытая сеть";"";"55.635515";"37.757292";"894811668";"0101000000DFC2BAF1EEE04240088F368E58D14B40";"";
"107";"Государственное бюджетное учреждение культуры города Москвы «Централизованная библиотечная система ВАО» Библиотека №72";"Восточный административный округ";"район Гольяново";"город Москва, Уссурийская улица, дом 9";"5";"Moscow_WiFi_Free";"50";"действует";"открытая сеть";"";"55.823975";"37.819073";"894811669";"0101000000B0045262D7E842405DDC460378E94B40";"";
"198";"Государственное бюджетное учреждение культуры города Москвы «Централизованная библиотечная система ЮАО» Центральная детская библиотека №152";"Южный административный округ";"район Орехово-Борисово Южное";"город Москва, Воронежская улица, дом 10";"10";"Moscow_WiFi_Free";"50";"действует";"открытая сеть";"";"55.608897";"37.726502";"894811670";"0101000000433D7D04FEDC4240F6D03E56F0CD4B40";"";
"108";"Государственное бюджетное учреждение культуры города Москвы «Централизованная библиотечная система ВАО» Библиотека №79 имени Бориса Андреевича Лавренева";"Восточный административный округ";"район Восточное Измайлово";"Российская Федерация, город Москва, внутригородская территория муниципальный округ Восточное Измайлово, Средняя Первомайская улица, дом 23";"3";"Moscow_WiFi_Free";"50";"действует";"открытая сеть";"";"55.795312";"37.811492";"894811671";"01010000009A7B48F8DEE74240E50E9BC8CCE54B40";"";
"199";"Государственное бюджетное учреждение культуры города Москвы «Централизованная библиотечная система ЮАО» Детская библиотека №153";"Южный административный округ";"район Зябликово";"город Москва, Задонский проезд, дом 24, корпус 3";"7";"Moscow_WiFi_Free";"50";"действует";"открытая сеть";"";"55.621648";"37.753658";"894811672";"0101000000342F87DD77E04240D9CF622992CF4B40";"";
"200";"Государственное бюджетное учреждение культуры города Москвы «Централизованная библиотечная система ЮАО» Детская библиотека №155";"Южный административный округ";"район Орехово-Борисово Южное";"город Москва, Гурьевский проезд, дом 15, корпус 2, строение 2";"8";"Moscow_WiFi_Free";"50";"действует";"открытая сеть";"";"55.607159";"37.746698";"894811674";"01010000008BFED0CC93DF42406D3CD862B7CD4B40";"";
"109";"Государственное бюджетное учреждение культуры города Москвы «Централизованная библиотечная система ВАО» Библиотека №80";"Восточный административный округ";"район Ивановское";"Российская Федерация, город Москва, внутригородская территория муниципальный округ Ивановское, Челябинская улица, дом 24, корпус 3А";"5";"Moscow_WiFi_Free";"50";"действует";"открытая сеть";"";"55.779241";"37.837327";"894811675";"01010000006687F8872DEB4240E659492BBEE34B40";"";
"118";"Государственное бюджетное учреждение культуры города Москвы «Централизованная библиотечная система ЗАО» Библиотека №221 имени Роберта Ивановича Рождественского";"Западный административный округ";"район Солнцево";"город Москва, Боровский проезд, дом 6";"1";"Moscow_WiFi_Free";"50";"действует";"открытая сеть";"";"55.655234";"37.390460";"894811676";"0101000000B532E197FAB14240179D2CB5DED34B40";"";
"110";"Государственное бюджетное учреждение культуры города Москвы «Централизованная библиотечная система ВАО» Библиотека №82";"Восточный административный округ";"район Измайлово";"город Москва, 4-я Парковая улица, дом 12, корпус 1";"4";"Moscow_WiFi_Free";"50";"действует";"открытая сеть";"";"55.790965";"37.786249";"894811677";"0101000000A0C1A6CEA3E44240ECA353573EE54B40";"";
"119";"Государственное бюджетное учреждение культуры города Москвы «Централизованная библиотечная система ЗАО» Библиотека №222";"Западный административный округ";"район Солнцево";"город Москва, улица Богданова, дом 14";"2";"Moscow_WiFi_Free";"50";"действует";"открытая сеть";"";"55.657337";"37.407843";"894811678";"010100000086730D3334B44240B2B96A9E23D44B40";"";
"111";"Государственное бюджетное учреждение культуры города Москвы «Централизованная библиотечная система ВАО» Библиотека №85";"Восточный административный округ";"район Измайлово";"Российская Федерация, город Москва, внутригородская территория муниципальный округ Измайлово, 3-я Парковая улица, дом 26/2";"3";"Moscow_WiFi_Free";"50";"действует";"открытая сеть";"";"55.795757";"37.782898";"894811679";"01010000004A0D6D0036E442401348895DDBE54B40";"";
"120";"Государственное бюджетное учреждение культуры города Москвы «Централизованная библиотечная система ЗАО» Библиотека №223";"Западный административный округ";"район Ново-Переделкино";"город Москва, Боровское шоссе, дом 46";"2";"Moscow_WiFi_Free";"50";"действует";"открытая сеть";"";"55.636524";"37.348392";"894811680";"01010000001118EB1B98AC42403F8F519E79D14B40";"";
"112";"Государственное бюджетное учреждение культуры города Москвы «Централизованная библиотечная система ВАО» Библиотека №93 имени Александра Александровича Блока";"Восточный административный округ";"район Ивановское";"город Москва, улица Сталеваров, дом 14, корпус 3";"3";"Moscow_WiFi_Free";"50";"действует";"открытая сеть";"";"55.757344";"37.839377";"894811681";"0101000000DE019EB470EB424032E9EFA5F0E04B40";"";
"121";"Государственное бюджетное учреждение культуры города Москвы «Централизованная библиотечная система ЗАО» Библиотека №223";"Западный административный округ";"район Ново-Переделкино";"город Москва, Новопеределкинская улица, дом 8";"6";"Moscow_WiFi_Free";"50";"действует";"открытая сеть";"";"55.640375";"37.369188";"894811682";"0101000000AF09698D41AF42408716D9CEF7D14B40";"";
"122";"Государственное бюджетное учреждение культуры города Москвы «Централизованная библиотечная система СВАО» Библиотека №50";"Северо-Восточный административный округ";"район Марьина Роща";"город Москва, Шереметьевская улица, дом 9, корпус 1";"6";"Moscow_WiFi_Free";"50";"действует";"открытая сеть";"";"55.795793";"37.615389";"894811683";"0101000000B9A81611C5CE424060B1868BDCE54B40";"";
"113";"Государственное бюджетное учреждение культуры города Москвы «Централизованная библиотечная система ВАО» Библиотека №97";"Восточный административный округ";"район Новокосино";"город Москва, Новокосинская улица, дом 15, корпус 3";"7";"Moscow_WiFi_Free";"50";"действует";"открытая сеть";"";"55.737902";"37.853811";"894811684";"010100000087FBC8AD49ED424095D39E9273DE4B40";"";
"123";"Государственное бюджетное учреждение культуры города Москвы «Централизованная библиотечная система Новомосковская» Библиотека №257";"Новомосковский административный округ";"поселение ""Мосрентген""";"город Москва, поселение ""Мосрентген"", посёлок Завода Мосрентген, дом 19";"2";"Moscow_WiFi_Free";"50";"действует";"открытая сеть";"";"55.622731";"37.472342";"894811685";"01010000007C43E1B375BC42404A9A3FA6B5CF4B40";"";
"114";"Государственное бюджетное учреждение культуры города Москвы «Централизованная библиотечная система ВАО» Детская библиотека №99";"Восточный административный округ";"район Новокосино";"город Москва, Суздальская улица, дом 38, корпус 2";"5";"Moscow_WiFi_Free";"50";"действует";"открытая сеть";"";"55.745498";"37.872730";"894811686";"0101000000791EDC9DB5EF4240E09D7C7A6CDF4B40";"";
"124";"Государственное бюджетное учреждение культуры города Москвы «Централизованная библиотечная система Новомосковская» Библиотека №258";"Новомосковский административный округ";"поселение Воскресенское";"город Москва, поселение Воскресенское, посёлок Воскресенское, дом 39";"2";"Moscow_WiFi_Free";"50";"действует";"открытая сеть";"";"55.531642";"37.446731";"894811687";"0101000000008E3D7B2EB942400B9755D80CC44B40";"";
"115";"Государственное бюджетное учреждение культуры города Москвы «Централизованная библиотечная система ЗАО» Библиотека №204 Центр культурного наследия Николая Степановича Гумилева";"Западный административный округ";"район Фили-Давыдково";"город Москва, Кременчугская улица, дом 22";"3";"Moscow_WiFi_Free";"50";"действует";"открытая сеть";"";"55.718010";"37.461337";"894811688";"0101000000A6B73F170DBB4240B9196EC0E7DB4B40";"";
"125";"Государственное бюджетное учреждение культуры города Москвы «Централизованная библиотечная система ЮЗАО» Библиотека №171";"Юго-Западный административный округ";"район Ясенево";"Российская Федерация, город Москва, внутригородская территория муниципальный округ Ясенево, Тарусская улица, дом 14, корпус 2";"13";"Moscow_WiFi_Free";"50";"действует";"открытая сеть";"";"55.604463";"37.530301";"894811689";"01010000009F0436E7E0C342402F52280B5FCD4B40";"";
"116";"Государственное бюджетное учреждение культуры города Москвы «Централизованная библиотечная система ЗАО» Библиотека №216";"Западный административный округ";"район Раменки";"город Москва, улица Лобачевского, дом 100";"2";"Moscow_WiFi_Free";"50";"действует";"открытая сеть";"";"55.684772";"37.481702";"894811692";"01010000007A354069A8BD4240B79BE09BA6D74B40";"";
"117";"Государственное бюджетное учреждение культуры города Москвы «Централизованная библиотечная система ЗАО» Библиотека №220";"Западный административный округ";"район Очаково-Матвеевское";"город Москва, улица Наташи Ковшовой, дом 7/1";"2";"Moscow_WiFi_Free";"50";"действует";"открытая сеть";"";"55.683539";"37.453944";"894811693";"0101000000931B45D61ABA42403145B9347ED74B40";"";
"127";"Государственное бюджетное учреждение культуры города Москвы «Централизованная библиотечная система ЮЗАО» Библиотека №183 имени Данте Алигьери";"Юго-Западный административный округ";"Гагаринский район";"город Москва, Университетский проспект, дом 4";"2";"Moscow_WiFi_Free";"50";"действует";"открытая сеть";"";"55.697067";"37.553810";"894811694";"01010000005019FF3EE3C64240770FD07D39D94B40";"";
"128";"Государственное бюджетное учреждение культуры города Москвы «Централизованная библиотечная система ЮЗАО» Библиотека №185";"Юго-Западный административный округ";"район Котловка";"город Москва, Нагорный бульвар, дом 3";"6";"Moscow_WiFi_Free";"50";"действует";"открытая сеть";"";"55.674707";"37.592976";"894811695";"01010000000DA837A3E6CB4240EEB089CC5CD64B40";"";
"181";"Государственное бюджетное учреждение культуры города Москвы «Централизованная библиотечная система ЗАО» Библиотека №223";"Западный административный округ";"район Ново-Переделкино";"город Москва, Боровское шоссе, дом 33, корпус 1";"5";"Moscow_WiFi_Free";"50";"действует";"открытая сеть";"";"55.640910";"37.361763";"894811916";"010100000091F3FE3F4EAE4240F5D6C05609D24B40";"";
"169";"Государственное бюджетное учреждение культуры города Москвы «Централизованная библиотечная система ЮАО» Детская библиотека №145";"Южный административный округ";"район Зябликово";"город Москва, улица Мусы Джалиля, дом 34, корпус 4";"5";"Moscow_WiFi_Free";"50";"действует";"открытая сеть";"";"55.617241";"37.737488";"894811917";"0101000000A298BC0166DE42400B60CAC001CF4B40";"";
"126";"Государственное бюджетное учреждение культуры города Москвы «Централизованная библиотечная система ЮЗАО» Библиотека №171";"Юго-Западный административный округ";"район Ясенево";"город Москва, улица Паустовского, дом 3";"2";"Moscow_WiFi_Free";"50";"действует";"открытая сеть";"";"55.600206";"37.542913";"894811918";"010100000060C9552C7EC54240766EDA8CD3CC4B40";"";
"253";"Государственное бюджетное учреждение культуры города Москвы «Централизованная библиотечная система ЗАО» Библиотека №221 имени Роберта Ивановича Рождественского";"Западный административный округ";"район Солнцево";"город Москва, Солнцевский проспект, дом 30";"3";"Moscow_WiFi_Free";"50";"действует";"открытая сеть";"";"55.648981";"37.410529";"908565704";"0101000000A087DA368CB44240D95C35CF11D34B40";"";
"254";"Государственное бюджетное учреждение культуры города Москвы «Централизованная библиотечная система ЗАО» Библиотека №221 имени Роберта Ивановича Рождественского";"Западный административный округ";"район Солнцево";"город Москва, Производственная улица, дом 5";"4";"Moscow_WiFi_Free";"50";"действует";"открытая сеть";"";"55.649637";"37.385115";"908565707";"01010000007A19C5724BB14240C2A2224E27D34B40";"";
"212";"Государственное бюджетное учреждение культуры города Москвы «Централизованная библиотечная система ЮВАО» Библиотека №119";"Юго-Восточный административный округ";"район Лефортово";"Российская Федерация, город Москва, внутригородская территория муниципальный округ Лефортово, шоссе Энтузиастов, дом 24/43";"3";"Moscow_WiFi_Free";"50";"действует";"открытая сеть";"";"55.751021";"37.717941";"908565904";"010100000091BA9D7DE5DB4240FBCDC47421E04B40";"";
"213";"Государственное бюджетное учреждение культуры города Москвы «Централизованная библиотечная система ЮВАО» Библиотека №121";"Юго-Восточный административный округ";"Южнопортовый район";"город Москва, улица Трофимова, дом 29";"9";"Moscow_WiFi_Free";"50";"действует";"открытая сеть";"";"55.702850";"37.681029";"908565905";"0101000000555051F52BD742402EFF21FDF6D94B40";"";
"214";"Государственное бюджетное учреждение культуры города Москвы «Централизованная библиотечная система ЮВАО» Библиотека №123";"Юго-Восточный административный округ";"Нижегородский район";"Российская Федерация, город Москва, внутригородская территория муниципальный округ Нижегородский, улица Верхняя Хохловка, дом 39/47";"2";"Moscow_WiFi_Free";"50";"действует";"открытая сеть";"";"55.733325";"37.721714";"908565906";"01010000005D88D51F61DC42406B2BF697DDDD4B40";"";
"215";"Государственное бюджетное учреждение культуры города Москвы «Централизованная библиотечная система ЮВАО» Библиотека №123";"Юго-Восточный административный округ";"Нижегородский район";"Российская Федерация, город Москва, внутригородская территория муниципальный округ Нижегородский, улица Рогожский Посёлок, дом 5";"4";"Moscow_WiFi_Free";"50";"действует";"открытая сеть";"";"55.737578";"37.701816";"908565907";"01010000009FE74F1BD5D94240E21FB6F468DE4B40";"";
"216";"Государственное бюджетное учреждение культуры города Москвы «Централизованная библиотечная система ЮВАО» Библиотека №124";"Юго-Восточный административный округ";"Южнопортовый район";"Российская Федерация, город Москва, внутригородская территория муниципальный округ Южнопортовый, улица Сайкина, дом 9/1";"8";"Moscow_WiFi_Free";"50";"действует";"открытая сеть";"";"55.707471";"37.668606";"908565908";"010100000066F4A3E194D5424028EFE3688EDA4B40";"";
"217";"Государственное бюджетное учреждение культуры города Москвы «Централизованная библиотечная система ЮВАО» Библиотека №132";"Юго-Восточный административный округ";"район Печатники";"город Москва, Батюнинская улица, дом 14";"5";"Moscow_WiFi_Free";"50";"действует";"открытая сеть";"";"55.659856";"37.705221";"908565909";"0101000000E9B985AE44DA4240E108522976D44B40";"";
"218";"Государственное бюджетное учреждение культуры города Москвы «Централизованная библиотечная система ЮВАО» Библиотека №135";"Юго-Восточный административный округ";"район Марьино";"Российская Федерация, город Москва, внутригородская территория муниципальный округ Марьино, улица Перерва, дом 24, строение 2";"6";"Moscow_WiFi_Free";"50";"действует";"открытая сеть";"";"55.651547";"37.730553";"908565910";"0101000000527FBDC282DD4240496760E465D34B40";"";
"219";"Государственное бюджетное учреждение культуры города Москвы «Централизованная библиотечная система ЮВАО» Библиотека №135";"Юго-Восточный административный округ";"район Марьино";"Российская Федерация, город Москва, внутригородская территория муниципальный округ Марьино, Донецкая улица, дом 33";"3";"Moscow_WiFi_Free";"50";"действует";"открытая сеть";"";"55.644608";"37.711635";"908565911";"010100000030D80DDB16DB4240B75ED38382D24B40";"";
"220";"Государственное бюджетное учреждение культуры города Москвы «Централизованная библиотечная система ВАО» Библиотека №83";"Восточный административный округ";"район Измайлово";"город Москва, 7-я Парковая улица, дом 27";"6";"Moscow_WiFi_Free";"50";"действует";"открытая сеть";"";"55.802224";"37.793337";"908565912";"010100000077DA1A118CE542407D08AA46AFE64B40";"";
"221";"Государственное бюджетное учреждение культуры города Москвы «Централизованная библиотечная система ВАО» Библиотека №86";"Восточный административный округ";"район Измайлово";"город Москва, Измайловский проезд, дом 4";"3";"Moscow_WiFi_Free";"50";"действует";"открытая сеть";"";"55.791283";"37.769981";"908565913";"01010000004CC5C6BC8EE24240BD70E7C248E54B40";"";
"222";"Государственное бюджетное учреждение культуры города Москвы «Централизованная библиотечная система ЗАО» Библиотека №200 «Истоки»";"Западный административный округ";"район Кунцево";"город Москва, улица Ивана Франко, дом 32, корпус 1";"3";"Moscow_WiFi_Free";"50";"действует";"открытая сеть";"";"55.728089";"37.421488";"908565914";"010100000006D49B51F3B54240E6C9350532DD4B40";"";
"223";"Государственное бюджетное учреждение культуры города Москвы «Централизованная библиотечная система ЮВАО» Библиотека №105";"Юго-Восточный административный округ";"район Люблино";"город Москва, Кубанская улица, дом 16/2";"5";"Moscow_WiFi_Free";"50";"действует";"открытая сеть";"";"55.683787";"37.743893";"908565915";"0101000000965CC5E237DF42400937195586D74B40";"";
"224";"Государственное бюджетное учреждение культуры города Москвы «Централизованная библиотечная система ЮВАО» Библиотека №106";"Юго-Восточный административный округ";"Рязанский район";"город Москва, Яснополянская улица, дом 3, корпус 2";"3";"Moscow_WiFi_Free";"50";"действует";"открытая сеть";"";"55.722664";"37.787390";"908565916";"010100000046990D32C9E442408FFF024180DC4B40";"";
"225";"Государственное бюджетное учреждение культуры города Москвы «Централизованная библиотечная система ЮВАО» Библиотека №118";"Юго-Восточный административный округ";"район Лефортово";"Российская Федерация, город Москва, внутригородская территория муниципальный округ Лефортово, Энергетическая улица, дом 4";"5";"Moscow_WiFi_Free";"50";"действует";"открытая сеть";"";"55.761153";"37.702499";"908565917";"0101000000823CBB7CEBD942404B2025766DE14B40";"";
"226";"Государственное бюджетное учреждение культуры города Москвы «Централизованная библиотечная система ЮВАО» Библиотека №126";"Юго-Восточный административный округ";"район Лефортово";"Российская Федерация, город Москва, внутригородская территория муниципальный округ Лефортово, Красноказарменная улица, дом 10";"5";"Moscow_WiFi_Free";"50";"действует";"открытая сеть";"";"55.757379";"37.697837";"908565918";"010100000029780AB952D94240AED689CBF1E04B40";"";
"227";"Государственное бюджетное учреждение культуры города Москвы «Централизованная библиотечная система ЮВАО» Библиотека №134";"Юго-Восточный административный округ";"район Капотня";"Российская Федерация, город Москва, внутригородская территория муниципальный округ Капотня, 3-й квартал Капотня, дом 13";"5";"Moscow_WiFi_Free";"50";"действует";"открытая сеть";"";"55.635559";"37.795565";"908565919";"0101000000CF6BEC12D5E54240D8D64FFF59D14B40";"";
"228";"Государственное бюджетное учреждение культуры города Москвы «Дом Гоголя» Выставочный зал";"Центральный административный округ";"район Арбат";"город Москва, Никитский бульвар, дом 7";"5";"Moscow_WiFi_Free";"50";"действует";"открытая сеть";"";"55.753681";"37.599822";"908565920";"0101000000EEB5A0F7C6CC4240EC4E779E78E04B40";"";
"229";"Государственное бюджетное учреждение культуры города Москвы «Дом Гоголя» Библиотека и музей";"Центральный административный округ";"район Арбат";"город Москва, Никитский бульвар, дом 7А";"15";"Moscow_WiFi_Free";"50";"действует";"открытая сеть";"";"55.754142";"37.599822";"908565921";"0101000000EEB5A0F7C6CC424020459DB987E04B40";"";
"230";"Государственное бюджетное учреждение культуры города Москвы «Библиотека искусств имени Алексея Петровича Боголюбова» Отдел «Детская библиотека»";"Центральный административный округ";"Тверской район";"город Москва, Новослободская улица, дом 49/2";"5";"Moscow_WiFi_Free";"50";"действует";"открытая сеть";"";"55.786510";"37.593480";"908565922";"0101000000406A1327F7CB42400DFD135CACE44B40";"";
"231";"Государственное бюджетное учреждение культуры города Москвы «Централизованная библиотечная система ВАО» Библиотека №72";"Восточный административный округ";"район Гольяново";"Российская Федерация, город Москва, внутригородская территория муниципальный округ Гольяново, Хабаровская улица, дом 6, корпус 1";"5";"Moscow_WiFi_Free";"50";"действует";"открытая сеть";"";"55.817633";"37.828416";"908565923";"0101000000D7BD158909EA4240B090B932A8E84B40";"";
"232";"Государственное бюджетное учреждение культуры города Москвы «Централизованная библиотечная система ВАО» Библиотека №74";"Восточный административный округ";"район Богородское";"город Москва, Ивантеевская улица, дом 4, корпус 2";"3";"Moscow_WiFi_Free";"50";"действует";"открытая сеть";"";"55.819489";"37.716127";"908565924";"01010000002C64AE0CAADB42404337FB03E5E84B40";"";
"233";"Государственное бюджетное учреждение культуры города Москвы «Централизованная библиотечная система ВАО» Библиотека №74";"Восточный административный округ";"район Богородское";"город Москва, Краснобогатырская улица, дом 75, корпус 2";"7";"Moscow_WiFi_Free";"50";"действует";"открытая сеть";"";"55.808801";"37.707305";"908565925";"01010000000DA661F888DA42406EFC89CA86E74B40";"";
"234";"Государственное бюджетное учреждение культуры города Москвы «Централизованная библиотечная система ВАО» Библиотека №76 имени Михаила Юрьевича Лермонтова";"Восточный административный округ";"район Сокольники";"Российская Федерация, город Москва, внутригородская территория муниципальный округ Сокольники, улица Шумкина, дом 17/16";"6";"Moscow_WiFi_Free";"50";"действует";"открытая сеть";"";"55.788075";"37.670672";"908565926";"0101000000E52B8194D8D54240C9E53FA4DFE44B40";"";
"235";"Государственное бюджетное учреждение культуры города Москвы «Централизованная библиотечная система ВАО» Библиотека №76 имени Михаила Юрьевича Лермонтова";"Восточный административный округ";"район Сокольники";"город Москва, улица Короленко, дом 2/23, корпус 4";"1";"Moscow_WiFi_Free";"50";"действует";"открытая сеть";"";"55.797382";"37.687650";"908565927";"0101000000158C4AEA04D84240A435069D10E64B40";"";
"255";"Государственное бюджетное учреждение культуры города Москвы «Централизованная библиотечная система САО» Библиотека №27";"Северный административный округ";"район Ховрино";"город Москва, Фестивальная улица, дом 67";"11";"Moscow_WiFi_Free";"50";"действует";"открытая сеть";"";"55.862013";"37.501482";"908565928";"01010000002FC4EA8F30C0424009DD257156EE4B40";"";
"256";"Государственное бюджетное учреждение культуры города Москвы «Централизованная библиотечная система САО» Библиотека №47";"Северный административный округ";"район Западное Дегунино";"город Москва, Весенняя улица, дом 8";"6";"Moscow_WiFi_Free";"50";"действует";"открытая сеть";"";"55.872912";"37.516953";"908565929";"0101000000D84812842BC242409A249694BBEF4B40";"";
"257";"Государственное бюджетное учреждение культуры города Москвы «Централизованная библиотечная система ЦАО» Библиотека №6 имени Викентия Викентьевича Вересаева";"Центральный административный округ";"район Хамовники";"город Москва, Ружейный переулок, дом 4, строение 1";"6";"Moscow_WiFi_Free";"50";"действует";"открытая сеть";"";"55.743504";"37.580468";"908565931";"0101000000F12F82C64CCA4240FC389A232BDF4B40";"";
"258";"Государственное бюджетное учреждение культуры города Москвы «Центральная городская молодежная библиотека имени Михаила Аркадьевича Светлова»";"Центральный административный округ";"Пресненский район";"город Москва, Большой Тишинский переулок, дом 24";"6";"Moscow_WiFi_Free";"50";"действует";"открытая сеть";"";"55.769190";"37.574047";"908565932";"0101000000F7AE415F7AC94240833463D174E24B40";"";
"271";"Государственное бюджетное учреждение культуры города Москвы «Централизованная библиотечная система ЮЗАО» Библиотека №169 «Проспект»";"Юго-Западный административный округ";"район Тёплый Стан";"город Москва, Ленинский проспект, дом 127";"11";"Moscow_WiFi_Free";"50";"действует";"открытая сеть";"";"55.645724";"37.476704";"908565933";"0101000000AAEFFCA204BD4240041F8315A7D24B40";"";
"259";"Государственное бюджетное учреждение культуры города Москвы «Централизованная библиотечная система ЮЗАО» Библиотека №195";"Юго-Западный административный округ";"район Южное Бутово";"город Москва, улица Адмирала Лазарева, дом 61";"14";"Moscow_WiFi_Free";"50";"действует";"открытая сеть";"";"55.538294";"37.508419";"908565934";"010100000020D5B0DF13C1424007D15AD1E6C44B40";"";
